<?xml version='1.0' encoding='UTF-8'?>
<dataset>
	<record>
		<id>1</id>
		<City>Sochaux</City>
		<Country>France</Country>
		<Postal_Code>25609 CEDEX</Postal_Code>
		<Latitude>47.5054315</Latitude>
		<Longitude>6.8426821</Longitude>
	</record>
	<record>
		<id>2</id>
		<City>Comendador</City>
		<Country>Dominican Republic</Country>
		<Postal_Code>11205</Postal_Code>
		<Latitude>18.4500491</Latitude>
		<Longitude>-70.0007511</Longitude>
	</record>
	<record>
		<id>3</id>
		<City>Ladushkin</City>
		<Country>Russia</Country>
		<Postal_Code>238460</Postal_Code>
		<Latitude>54.5728766</Latitude>
		<Longitude>20.1764433</Longitude>
	</record>
	<record>
		<id>4</id>
		<City>Folques</City>
		<Country>Portugal</Country>
		<Postal_Code>3300-265</Postal_Code>
		<Latitude>40.2221306</Latitude>
		<Longitude>-8.0122102</Longitude>
	</record>
	<record>
		<id>5</id>
		<City>Nàng Mau</City>
		<Country>Vietnam</Country>
		<Postal_Code />
		<Latitude>9.7494365</Latitude>
		<Longitude>105.5327831</Longitude>
	</record>
	<record>
		<id>6</id>
		<City>Huiwen</City>
		<Country>China</Country>
		<Postal_Code />
		<Latitude>28.006273</Latitude>
		<Longitude>120.635515</Longitude>
	</record>
	<record>
		<id>7</id>
		<City>Teykovo</City>
		<Country>Russia</Country>
		<Postal_Code>155048</Postal_Code>
		<Latitude>56.8682477</Latitude>
		<Longitude>40.5854053</Longitude>
	</record>
	<record>
		<id>8</id>
		<City>Kostrzyn nad Odrą</City>
		<Country>Poland</Country>
		<Postal_Code>66-470</Postal_Code>
		<Latitude>52.6235765</Latitude>
		<Longitude>14.6349097</Longitude>
	</record>
	<record>
		<id>9</id>
		<City>Santo Niño</City>
		<Country>Philippines</Country>
		<Postal_Code>6711</Postal_Code>
		<Latitude>14.3839328</Latitude>
		<Longitude>121.050126</Longitude>
	</record>
	<record>
		<id>10</id>
		<City>Manama</City>
		<Country>Bahrain</Country>
		<Postal_Code />
		<Latitude>26.2285161</Latitude>
		<Longitude>50.5860497</Longitude>
	</record>
	<record>
		<id>11</id>
		<City>Małkinia Górna</City>
		<Country>Poland</Country>
		<Postal_Code>07-320</Postal_Code>
		<Latitude>52.6934663</Latitude>
		<Longitude>22.0269962</Longitude>
	</record>
	<record>
		<id>12</id>
		<City>Sławoborze</City>
		<Country>Poland</Country>
		<Postal_Code>78-314</Postal_Code>
		<Latitude>53.8917777</Latitude>
		<Longitude>15.7118669</Longitude>
	</record>
	<record>
		<id>13</id>
		<City>Lusambo</City>
		<Country>Democratic Republic of the Congo</Country>
		<Postal_Code />
		<Latitude>-4.9652806</Latitude>
		<Longitude>23.4478441</Longitude>
	</record>
	<record>
		<id>14</id>
		<City>Nekhayevskiy</City>
		<Country>Russia</Country>
		<Postal_Code>347037</Postal_Code>
		<Latitude>50.5193689</Latitude>
		<Longitude>41.6704075</Longitude>
	</record>
	<record>
		<id>15</id>
		<City>Chumikan</City>
		<Country>Russia</Country>
		<Postal_Code>682560</Postal_Code>
		<Latitude>54.708952</Latitude>
		<Longitude>135.322998</Longitude>
	</record>
	<record>
		<id>16</id>
		<City>Kizlyar</City>
		<Country>Russia</Country>
		<Postal_Code>363720</Postal_Code>
		<Latitude>59.902198</Latitude>
		<Longitude>30.337848</Longitude>
	</record>
	<record>
		<id>17</id>
		<City>Kutorejo</City>
		<Country>Indonesia</Country>
		<Postal_Code />
		<Latitude>-7.572027</Latitude>
		<Longitude>112.5125893</Longitude>
	</record>
	<record>
		<id>18</id>
		<City>Kidangbang</City>
		<Country>Indonesia</Country>
		<Postal_Code />
		<Latitude>-8.0976125</Latitude>
		<Longitude>112.700315</Longitude>
	</record>
	<record>
		<id>19</id>
		<City>Changshou</City>
		<Country>China</Country>
		<Postal_Code />
		<Latitude>29.857996</Latitude>
		<Longitude>107.081282</Longitude>
	</record>
	<record>
		<id>20</id>
		<City>Wonocoyo Utara</City>
		<Country>Indonesia</Country>
		<Postal_Code />
		<Latitude>-8.2517133</Latitude>
		<Longitude>111.4365318</Longitude>
	</record>
	<record>
		<id>21</id>
		<City>Zebrzydowice</City>
		<Country>Poland</Country>
		<Postal_Code>43-410</Postal_Code>
		<Latitude>49.8545281</Latitude>
		<Longitude>18.6057328</Longitude>
	</record>
	<record>
		<id>22</id>
		<City>Gornyak</City>
		<Country>Russia</Country>
		<Postal_Code>658424</Postal_Code>
		<Latitude>52.7569427</Latitude>
		<Longitude>55.8011374</Longitude>
	</record>
	<record>
		<id>23</id>
		<City>Xukou</City>
		<Country>China</Country>
		<Postal_Code />
		<Latitude>29.731101</Latitude>
		<Longitude>116.251947</Longitude>
	</record>
	<record>
		<id>24</id>
		<City>Peyima</City>
		<Country>Sierra Leone</Country>
		<Postal_Code />
		<Latitude>8.7550575</Latitude>
		<Longitude>-11.044307</Longitude>
	</record>
	<record>
		<id>25</id>
		<City>Dofa</City>
		<Country>Indonesia</Country>
		<Postal_Code />
		<Latitude>-1.8213645</Latitude>
		<Longitude>125.379537</Longitude>
	</record>
	<record>
		<id>26</id>
		<City>Cikalong</City>
		<Country>Indonesia</Country>
		<Postal_Code />
		<Latitude>-7.45</Latitude>
		<Longitude>108.033333</Longitude>
	</record>
	<record>
		<id>27</id>
		<City>Weligama</City>
		<Country>Sri Lanka</Country>
		<Postal_Code>81700</Postal_Code>
		<Latitude>5.973323</Latitude>
		<Longitude>80.437663</Longitude>
	</record>
	<record>
		<id>28</id>
		<City>Eindhoven</City>
		<Country>Netherlands</Country>
		<Postal_Code>5609</Postal_Code>
		<Latitude>51.5244042</Latitude>
		<Longitude>5.7576526</Longitude>
	</record>
	<record>
		<id>29</id>
		<City>Qalandiyā</City>
		<Country>Palestinian Territory</Country>
		<Postal_Code />
		<Latitude>31.861597</Latitude>
		<Longitude>35.207914</Longitude>
	</record>
	<record>
		<id>30</id>
		<City>Takanabe</City>
		<Country>Japan</Country>
		<Postal_Code>889-1404</Postal_Code>
		<Latitude>32.0550488</Latitude>
		<Longitude>131.4937793</Longitude>
	</record>
	<record>
		<id>31</id>
		<City>Longshan</City>
		<Country>China</Country>
		<Postal_Code />
		<Latitude>42.901533</Latitude>
		<Longitude>125.136451</Longitude>
	</record>
	<record>
		<id>32</id>
		<City>Magoúla</City>
		<Country>Greece</Country>
		<Postal_Code />
		<Latitude>38.0790354</Latitude>
		<Longitude>23.5215964</Longitude>
	</record>
	<record>
		<id>33</id>
		<City>Chokwé</City>
		<Country>Mozambique</Country>
		<Postal_Code />
		<Latitude>-24.5323166</Latitude>
		<Longitude>32.9831998</Longitude>
	</record>
	<record>
		<id>34</id>
		<City>Hoeyang</City>
		<Country>North Korea</Country>
		<Postal_Code />
		<Latitude>38.7150205</Latitude>
		<Longitude>127.6015031</Longitude>
	</record>
	<record>
		<id>35</id>
		<City>Fantan</City>
		<Country>Armenia</Country>
		<Postal_Code />
		<Latitude>40.3942118</Latitude>
		<Longitude>44.6854034</Longitude>
	</record>
	<record>
		<id>36</id>
		<City>Mirandela</City>
		<Country>Portugal</Country>
		<Postal_Code>5370-182</Postal_Code>
		<Latitude>41.4853545</Latitude>
		<Longitude>-7.1808711</Longitude>
	</record>
	<record>
		<id>37</id>
		<City>Bang Lamung</City>
		<Country>Thailand</Country>
		<Postal_Code>20150</Postal_Code>
		<Latitude>13.0427506</Latitude>
		<Longitude>100.9345401</Longitude>
	</record>
	<record>
		<id>38</id>
		<City>Dadukou</City>
		<Country>China</Country>
		<Postal_Code />
		<Latitude>29.484527</Latitude>
		<Longitude>106.482346</Longitude>
	</record>
	<record>
		<id>39</id>
		<City>Gândara de Aquém</City>
		<Country>Portugal</Country>
		<Postal_Code>2425-445</Postal_Code>
		<Latitude>39.8474574</Latitude>
		<Longitude>-8.8886377</Longitude>
	</record>
	<record>
		<id>40</id>
		<City>Tulihe</City>
		<Country>China</Country>
		<Postal_Code />
		<Latitude>50.480431</Latitude>
		<Longitude>121.682569</Longitude>
	</record>
	<record>
		<id>41</id>
		<City>Rende</City>
		<Country>China</Country>
		<Postal_Code />
		<Latitude>22.603489</Latitude>
		<Longitude>114.102406</Longitude>
	</record>
	<record>
		<id>42</id>
		<City>Isidro Fabela</City>
		<Country>Mexico</Country>
		<Postal_Code>54932</Postal_Code>
		<Latitude>19.6612408</Latitude>
		<Longitude>-99.0795719</Longitude>
	</record>
	<record>
		<id>43</id>
		<City>Dimataling</City>
		<Country>Philippines</Country>
		<Postal_Code>7032</Postal_Code>
		<Latitude>7.516342</Latitude>
		<Longitude>123.345085</Longitude>
	</record>
	<record>
		<id>44</id>
		<City>Cayambe</City>
		<Country>Ecuador</Country>
		<Postal_Code />
		<Latitude>0.0319573</Latitude>
		<Longitude>-78.1507423</Longitude>
	</record>
	<record>
		<id>45</id>
		<City>Khiv</City>
		<Country>Russia</Country>
		<Postal_Code>368692</Postal_Code>
		<Latitude>53.1892176</Latitude>
		<Longitude>50.119277</Longitude>
	</record>
	<record>
		<id>46</id>
		<City>Butou</City>
		<Country>China</Country>
		<Postal_Code />
		<Latitude>40.657978</Latitude>
		<Longitude>109.840313</Longitude>
	</record>
	<record>
		<id>47</id>
		<City>Närpes</City>
		<Country>Finland</Country>
		<Postal_Code>64210</Postal_Code>
		<Latitude>62.4687739</Latitude>
		<Longitude>21.2500825</Longitude>
	</record>
	<record>
		<id>48</id>
		<City>Yongledian</City>
		<Country>China</Country>
		<Postal_Code />
		<Latitude>39.708782</Latitude>
		<Longitude>116.796531</Longitude>
	</record>
	<record>
		<id>49</id>
		<City>Toumodi</City>
		<Country>Ivory Coast</Country>
		<Postal_Code />
		<Latitude>6.4687099</Latitude>
		<Longitude>-4.976654</Longitude>
	</record>
	<record>
		<id>50</id>
		<City>Inhambane</City>
		<Country>Mozambique</Country>
		<Postal_Code />
		<Latitude>-23.8879561</Latitude>
		<Longitude>35.3959879</Longitude>
	</record>
	<record>
		<id>51</id>
		<City>Valença do Douro</City>
		<Country>Portugal</Country>
		<Postal_Code>5120-504</Postal_Code>
		<Latitude>41.1578541</Latitude>
		<Longitude>-7.5547135</Longitude>
	</record>
	<record>
		<id>52</id>
		<City>Nova Viçosa</City>
		<Country>Brazil</Country>
		<Postal_Code>45920-000</Postal_Code>
		<Latitude>-17.8938032</Latitude>
		<Longitude>-39.6930912</Longitude>
	</record>
	<record>
		<id>53</id>
		<City>Liangli</City>
		<Country>China</Country>
		<Postal_Code />
		<Latitude>32.9187879</Latitude>
		<Longitude>115.9811735</Longitude>
	</record>
	<record>
		<id>54</id>
		<City>Shalamzār</City>
		<Country>Iran</Country>
		<Postal_Code />
		<Latitude>32.04541</Latitude>
		<Longitude>50.8157258</Longitude>
	</record>
	<record>
		<id>55</id>
		<City>Kiffa</City>
		<Country>Mauritania</Country>
		<Postal_Code />
		<Latitude>16.6258353</Latitude>
		<Longitude>-11.4055282</Longitude>
	</record>
	<record>
		<id>56</id>
		<City>Daxbet</City>
		<Country>Uzbekistan</Country>
		<Postal_Code />
		<Latitude>39.76389</Latitude>
		<Longitude>66.9125</Longitude>
	</record>
	<record>
		<id>57</id>
		<City>Pingdong</City>
		<Country>China</Country>
		<Postal_Code />
		<Latitude>22.6558442</Latitude>
		<Longitude>120.4703258</Longitude>
	</record>
	<record>
		<id>58</id>
		<City>Neepawa</City>
		<Country>Canada</Country>
		<Postal_Code>H3Z</Postal_Code>
		<Latitude>50.22892</Latitude>
		<Longitude>-99.46642</Longitude>
	</record>
	<record>
		<id>59</id>
		<City>Casal da Serra</City>
		<Country>Portugal</Country>
		<Postal_Code>2560-057</Postal_Code>
		<Latitude>39.1605965</Latitude>
		<Longitude>-9.3472738</Longitude>
	</record>
	<record>
		<id>60</id>
		<City>Cruz del Eje</City>
		<Country>Argentina</Country>
		<Postal_Code>5280</Postal_Code>
		<Latitude>-31.4847366</Latitude>
		<Longitude>-64.2108962</Longitude>
	</record>
	<record>
		<id>61</id>
		<City>Colegiales</City>
		<Country>Argentina</Country>
		<Postal_Code>1871</Postal_Code>
		<Latitude>-34.7319466</Latitude>
		<Longitude>-58.6368645</Longitude>
	</record>
	<record>
		<id>62</id>
		<City>San Jose</City>
		<Country>United States</Country>
		<Postal_Code>95108</Postal_Code>
		<Latitude>37.34</Latitude>
		<Longitude>-121.89</Longitude>
	</record>
	<record>
		<id>63</id>
		<City>Almirante</City>
		<Country>Panama</Country>
		<Postal_Code />
		<Latitude>9.2979179</Latitude>
		<Longitude>-82.4211025</Longitude>
	</record>
	<record>
		<id>64</id>
		<City>Hägersten</City>
		<Country>Sweden</Country>
		<Postal_Code>129 07</Postal_Code>
		<Latitude>59.305486</Latitude>
		<Longitude>18.0023078</Longitude>
	</record>
	<record>
		<id>65</id>
		<City>Punggurharjo</City>
		<Country>Indonesia</Country>
		<Postal_Code />
		<Latitude>-6.7271573</Latitude>
		<Longitude>111.4805019</Longitude>
	</record>
	<record>
		<id>66</id>
		<City>Vancouver</City>
		<Country>United States</Country>
		<Postal_Code>98664</Postal_Code>
		<Latitude>45.616422</Latitude>
		<Longitude>-122.5804528</Longitude>
	</record>
	<record>
		<id>67</id>
		<City>Mutoko</City>
		<Country>Zimbabwe</Country>
		<Postal_Code />
		<Latitude>-17.4086322</Latitude>
		<Longitude>32.2256803</Longitude>
	</record>
	<record>
		<id>68</id>
		<City>Minanga Norte</City>
		<Country>Philippines</Country>
		<Postal_Code>8209</Postal_Code>
		<Latitude>17.75</Latitude>
		<Longitude>121.7333298</Longitude>
	</record>
	<record>
		<id>69</id>
		<City>Almoínhas Velhas</City>
		<Country>Portugal</Country>
		<Postal_Code>2755-163</Postal_Code>
		<Latitude>38.751115</Latitude>
		<Longitude>-9.4574506</Longitude>
	</record>
	<record>
		<id>70</id>
		<City>Marmashen</City>
		<Country>Armenia</Country>
		<Postal_Code />
		<Latitude>40.8428562</Latitude>
		<Longitude>43.7557983</Longitude>
	</record>
	<record>
		<id>71</id>
		<City>Tha Yang</City>
		<Country>Thailand</Country>
		<Postal_Code>76130</Postal_Code>
		<Latitude>12.9714369</Latitude>
		<Longitude>99.8991604</Longitude>
	</record>
	<record>
		<id>72</id>
		<City>Neebing</City>
		<Country>Canada</Country>
		<Postal_Code>P7L</Postal_Code>
		<Latitude>48.1735351</Latitude>
		<Longitude>-89.4810715</Longitude>
	</record>
	<record>
		<id>73</id>
		<City>Xinhua</City>
		<Country>China</Country>
		<Postal_Code />
		<Latitude>38.05106</Latitude>
		<Longitude>114.463347</Longitude>
	</record>
	<record>
		<id>74</id>
		<City>Kitahiroshima</City>
		<Country>Japan</Country>
		<Postal_Code>349-1111</Postal_Code>
		<Latitude>36.1201804</Latitude>
		<Longitude>139.7040273</Longitude>
	</record>
	<record>
		<id>75</id>
		<City>Halimaung Jaya (F-3)</City>
		<Country>Indonesia</Country>
		<Postal_Code />
		<Latitude>-3.1367979</Latitude>
		<Longitude>112.6913764</Longitude>
	</record>
	<record>
		<id>76</id>
		<City>Nsukka</City>
		<Country>Nigeria</Country>
		<Postal_Code />
		<Latitude>6.8429422</Latitude>
		<Longitude>7.3732655</Longitude>
	</record>
	<record>
		<id>77</id>
		<City>Oliveira de Frades</City>
		<Country>Portugal</Country>
		<Postal_Code>3680-077</Postal_Code>
		<Latitude>40.7322554</Latitude>
		<Longitude>-8.1737805</Longitude>
	</record>
	<record>
		<id>78</id>
		<City>Buffalo</City>
		<Country>United States</Country>
		<Postal_Code>14225</Postal_Code>
		<Latitude>42.9202891</Latitude>
		<Longitude>-78.7589558</Longitude>
	</record>
	<record>
		<id>79</id>
		<City>Paris 04</City>
		<Country>France</Country>
		<Postal_Code>75188 CEDEX 04</Postal_Code>
		<Latitude>43.4945737</Latitude>
		<Longitude>5.8978018</Longitude>
	</record>
	<record>
		<id>80</id>
		<City>Igoumenítsa</City>
		<Country>Greece</Country>
		<Postal_Code />
		<Latitude>39.5061499</Latitude>
		<Longitude>20.2655339</Longitude>
	</record>
	<record>
		<id>81</id>
		<City>Limulan</City>
		<Country>Philippines</Country>
		<Postal_Code>9808</Postal_Code>
		<Latitude>6.4946003</Latitude>
		<Longitude>124.1086807</Longitude>
	</record>
	<record>
		<id>82</id>
		<City>Miaoling</City>
		<Country>China</Country>
		<Postal_Code />
		<Latitude>42.896428</Latitude>
		<Longitude>130.585349</Longitude>
	</record>
	<record>
		<id>83</id>
		<City>Heliconia</City>
		<Country>Colombia</Country>
		<Postal_Code>055827</Postal_Code>
		<Latitude>6.208781</Latitude>
		<Longitude>-75.732944</Longitude>
	</record>
	<record>
		<id>84</id>
		<City>Arnhem</City>
		<Country>Netherlands</Country>
		<Postal_Code>6824</Postal_Code>
		<Latitude>51.9913857</Latitude>
		<Longitude>5.9372731</Longitude>
	</record>
	<record>
		<id>85</id>
		<City>Deán Funes</City>
		<Country>Argentina</Country>
		<Postal_Code>5613</Postal_Code>
		<Latitude>-31.3927967</Latitude>
		<Longitude>-64.2545133</Longitude>
	</record>
	<record>
		<id>86</id>
		<City>Baraya</City>
		<Country>Colombia</Country>
		<Postal_Code>411067</Postal_Code>
		<Latitude>3.1852692</Latitude>
		<Longitude>-74.9208772</Longitude>
	</record>
	<record>
		<id>87</id>
		<City>Dieppe</City>
		<Country>Canada</Country>
		<Postal_Code>E1A</Postal_Code>
		<Latitude>46.0952765</Latitude>
		<Longitude>-64.7486638</Longitude>
	</record>
	<record>
		<id>88</id>
		<City>Calgary</City>
		<Country>Canada</Country>
		<Postal_Code>T3S</Postal_Code>
		<Latitude>50.9359639</Latitude>
		<Longitude>-113.8998131</Longitude>
	</record>
	<record>
		<id>89</id>
		<City>Plavsk</City>
		<Country>Russia</Country>
		<Postal_Code>301477</Postal_Code>
		<Latitude>53.7111077</Latitude>
		<Longitude>37.29209</Longitude>
	</record>
	<record>
		<id>90</id>
		<City>La Palma</City>
		<Country>Mexico</Country>
		<Postal_Code>40914</Postal_Code>
		<Latitude>24.8197427</Latitude>
		<Longitude>-107.655919</Longitude>
	</record>
	<record>
		<id>91</id>
		<City>Əhmədbəyli</City>
		<Country>Azerbaijan</Country>
		<Postal_Code />
		<Latitude>39.5791451</Latitude>
		<Longitude>47.5422138</Longitude>
	</record>
	<record>
		<id>92</id>
		<City>Los Arcos</City>
		<Country>Philippines</Country>
		<Postal_Code>6814</Postal_Code>
		<Latitude>8.582235</Latitude>
		<Longitude>125.892784</Longitude>
	</record>
	<record>
		<id>93</id>
		<City>Huanipaca</City>
		<Country>Peru</Country>
		<Postal_Code />
		<Latitude>-13.470532</Latitude>
		<Longitude>-72.8795</Longitude>
	</record>
	<record>
		<id>94</id>
		<City>Shouchun</City>
		<Country>China</Country>
		<Postal_Code />
		<Latitude>32.573115</Latitude>
		<Longitude>116.787128</Longitude>
	</record>
	<record>
		<id>95</id>
		<City>Bolboc</City>
		<Country>Philippines</Country>
		<Postal_Code>1128</Postal_Code>
		<Latitude>13.7825775</Latitude>
		<Longitude>121.0492638</Longitude>
	</record>
	<record>
		<id>96</id>
		<City>Zhoupu</City>
		<Country>China</Country>
		<Postal_Code />
		<Latitude>31.114301</Latitude>
		<Longitude>121.574951</Longitude>
	</record>
	<record>
		<id>97</id>
		<City>Guotan</City>
		<Country>China</Country>
		<Postal_Code />
		<Latitude>34.379742</Latitude>
		<Longitude>117.788836</Longitude>
	</record>
	<record>
		<id>98</id>
		<City>Duwayr Raslān</City>
		<Country>Syria</Country>
		<Postal_Code />
		<Latitude>34.95563</Latitude>
		<Longitude>36.1983</Longitude>
	</record>
	<record>
		<id>99</id>
		<City>Lüfeng</City>
		<Country>China</Country>
		<Postal_Code />
		<Latitude>22.919228</Latitude>
		<Longitude>115.652151</Longitude>
	</record>
	<record>
		<id>100</id>
		<City>Hokor</City>
		<Country>Indonesia</Country>
		<Postal_Code />
		<Latitude>-8.727652</Latitude>
		<Longitude>122.2483726</Longitude>
	</record>
	<record>
		<id>101</id>
		<City>Poddębice</City>
		<Country>Poland</Country>
		<Postal_Code>99-200</Postal_Code>
		<Latitude>51.8803457</Latitude>
		<Longitude>18.9033376</Longitude>
	</record>
	<record>
		<id>102</id>
		<City>Gazli</City>
		<Country>Uzbekistan</Country>
		<Postal_Code />
		<Latitude>40.1274545</Latitude>
		<Longitude>63.4567092</Longitude>
	</record>
	<record>
		<id>103</id>
		<City>Ngulangan</City>
		<Country>Indonesia</Country>
		<Postal_Code />
		<Latitude>-6.7160998</Latitude>
		<Longitude>111.4886997</Longitude>
	</record>
	<record>
		<id>104</id>
		<City>Torrance</City>
		<Country>United States</Country>
		<Postal_Code>90505</Postal_Code>
		<Latitude>33.8101772</Latitude>
		<Longitude>-118.3520389</Longitude>
	</record>
	<record>
		<id>105</id>
		<City>Güira de Melena</City>
		<Country>Cuba</Country>
		<Postal_Code />
		<Latitude>22.795672</Latitude>
		<Longitude>-82.5131717</Longitude>
	</record>
	<record>
		<id>106</id>
		<City>Palue</City>
		<Country>Indonesia</Country>
		<Postal_Code />
		<Latitude>-8.3225345</Latitude>
		<Longitude>121.7081454</Longitude>
	</record>
	<record>
		<id>107</id>
		<City>Glubokiy</City>
		<Country>Russia</Country>
		<Postal_Code>347850</Postal_Code>
		<Latitude>48.526727</Latitude>
		<Longitude>40.316753</Longitude>
	</record>
	<record>
		<id>108</id>
		<City>Simão Dias</City>
		<Country>Brazil</Country>
		<Postal_Code>49480-000</Postal_Code>
		<Latitude>-10.7397921</Latitude>
		<Longitude>-37.809338</Longitude>
	</record>
	<record>
		<id>109</id>
		<City>Rimbo</City>
		<Country>Sweden</Country>
		<Postal_Code>762 31</Postal_Code>
		<Latitude>59.7394596</Latitude>
		<Longitude>18.3595793</Longitude>
	</record>
	<record>
		<id>110</id>
		<City>Ngurensiti</City>
		<Country>Indonesia</Country>
		<Postal_Code />
		<Latitude>-6.6998601</Latitude>
		<Longitude>111.0967118</Longitude>
	</record>
	<record>
		<id>111</id>
		<City>Lemery</City>
		<Country>Philippines</Country>
		<Postal_Code>5043</Postal_Code>
		<Latitude>14.5665991</Latitude>
		<Longitude>121.0022623</Longitude>
	</record>
	<record>
		<id>112</id>
		<City>Sudzha</City>
		<Country>Russia</Country>
		<Postal_Code>307831</Postal_Code>
		<Latitude>51.2092169</Latitude>
		<Longitude>35.2291386</Longitude>
	</record>
	<record>
		<id>113</id>
		<City>Xinhe</City>
		<Country>China</Country>
		<Postal_Code />
		<Latitude>37.520481</Latitude>
		<Longitude>115.251124</Longitude>
	</record>
	<record>
		<id>114</id>
		<City>Shichuan</City>
		<Country>China</Country>
		<Postal_Code />
		<Latitude>30.2638032</Latitude>
		<Longitude>102.8054753</Longitude>
	</record>
	<record>
		<id>115</id>
		<City>Anjō</City>
		<Country>Japan</Country>
		<Postal_Code>473-0938</Postal_Code>
		<Latitude>30.6509359</Latitude>
		<Longitude>131.0436289</Longitude>
	</record>
	<record>
		<id>116</id>
		<City>Gayamdesa</City>
		<Country>Indonesia</Country>
		<Postal_Code />
		<Latitude>-7.1929741</Latitude>
		<Longitude>111.7197315</Longitude>
	</record>
	<record>
		<id>117</id>
		<City>Thành Phố Thái Bình</City>
		<Country>Vietnam</Country>
		<Postal_Code />
		<Latitude>20.4463471</Latitude>
		<Longitude>106.3365828</Longitude>
	</record>
	<record>
		<id>118</id>
		<City>Coroatá</City>
		<Country>Brazil</Country>
		<Postal_Code>65415-000</Postal_Code>
		<Latitude>-4.055821</Latitude>
		<Longitude>-44.1720266</Longitude>
	</record>
	<record>
		<id>119</id>
		<City>San Remigio</City>
		<Country>Philippines</Country>
		<Postal_Code>6011</Postal_Code>
		<Latitude>11.0068891</Latitude>
		<Longitude>123.9185105</Longitude>
	</record>
	<record>
		<id>120</id>
		<City>Agat Village</City>
		<Country>Guam</Country>
		<Postal_Code>96922</Postal_Code>
		<Latitude>13.38855</Latitude>
		<Longitude>144.65852</Longitude>
	</record>
	<record>
		<id>121</id>
		<City>Usukhchay</City>
		<Country>Russia</Country>
		<Postal_Code>368758</Postal_Code>
		<Latitude>41.4232365</Latitude>
		<Longitude>47.9193557</Longitude>
	</record>
	<record>
		<id>122</id>
		<City>Ifon</City>
		<Country>Nigeria</Country>
		<Postal_Code />
		<Latitude>6.9234906</Latitude>
		<Longitude>5.7773898</Longitude>
	</record>
	<record>
		<id>123</id>
		<City>Yëlkino</City>
		<Country>Russia</Country>
		<Postal_Code>624214</Postal_Code>
		<Latitude>58.6922</Latitude>
		<Longitude>59.832</Longitude>
	</record>
	<record>
		<id>124</id>
		<City>Akouda</City>
		<Country>Tunisia</Country>
		<Postal_Code />
		<Latitude>35.8746739</Latitude>
		<Longitude>10.5718086</Longitude>
	</record>
	<record>
		<id>125</id>
		<City>Pingzhuang</City>
		<Country>China</Country>
		<Postal_Code />
		<Latitude>42.040521</Latitude>
		<Longitude>119.2987161</Longitude>
	</record>
	<record>
		<id>126</id>
		<City>Detroit</City>
		<Country>United States</Country>
		<Postal_Code>48258</Postal_Code>
		<Latitude>41.879109</Latitude>
		<Longitude>-86.550039</Longitude>
	</record>
	<record>
		<id>127</id>
		<City>Duyure</City>
		<Country>Honduras</Country>
		<Postal_Code />
		<Latitude>13.634726</Latitude>
		<Longitude>-86.8107363</Longitude>
	</record>
	<record>
		<id>128</id>
		<City>Darłowo</City>
		<Country>Poland</Country>
		<Postal_Code>76-153</Postal_Code>
		<Latitude>54.4398875</Latitude>
		<Longitude>16.3827955</Longitude>
	</record>
	<record>
		<id>129</id>
		<City>Vokhaïkó</City>
		<Country>Greece</Country>
		<Postal_Code />
		<Latitude>37.9478539</Latitude>
		<Longitude>22.7911211</Longitude>
	</record>
	<record>
		<id>130</id>
		<City>Kaustinen</City>
		<Country>Finland</Country>
		<Postal_Code>69601</Postal_Code>
		<Latitude>63.537266</Latitude>
		<Longitude>23.6993197</Longitude>
	</record>
	<record>
		<id>131</id>
		<City>Arvika</City>
		<Country>Sweden</Country>
		<Postal_Code>671 60</Postal_Code>
		<Latitude>59.6806933</Latitude>
		<Longitude>12.4859801</Longitude>
	</record>
	<record>
		<id>132</id>
		<City>Shiroi</City>
		<Country>Japan</Country>
		<Postal_Code>506-2118</Postal_Code>
		<Latitude>36.1638733</Latitude>
		<Longitude>137.4024848</Longitude>
	</record>
	<record>
		<id>133</id>
		<City>Hejiabao</City>
		<Country>China</Country>
		<Postal_Code />
		<Latitude>33.404544</Latitude>
		<Longitude>114.418181</Longitude>
	</record>
	<record>
		<id>134</id>
		<City>Palpalá</City>
		<Country>Argentina</Country>
		<Postal_Code>4612</Postal_Code>
		<Latitude>-31.4561755</Latitude>
		<Longitude>-64.2111608</Longitude>
	</record>
	<record>
		<id>135</id>
		<City>Gamut</City>
		<Country>Philippines</Country>
		<Postal_Code>8302</Postal_Code>
		<Latitude>9.000538</Latitude>
		<Longitude>126.159227</Longitude>
	</record>
	<record>
		<id>136</id>
		<City>Wolfville</City>
		<Country>Canada</Country>
		<Postal_Code>B4P</Postal_Code>
		<Latitude>45.089753</Latitude>
		<Longitude>-64.3623382</Longitude>
	</record>
	<record>
		<id>137</id>
		<City>Tucson</City>
		<Country>United States</Country>
		<Postal_Code>85743</Postal_Code>
		<Latitude>32.3324642</Latitude>
		<Longitude>-111.2129616</Longitude>
	</record>
	<record>
		<id>138</id>
		<City>Besançon</City>
		<Country>France</Country>
		<Postal_Code>25057 CEDEX</Postal_Code>
		<Latitude>47.2154159</Latitude>
		<Longitude>5.9471867</Longitude>
	</record>
	<record>
		<id>139</id>
		<City>Pecka</City>
		<Country>Czech Republic</Country>
		<Postal_Code>507 82</Postal_Code>
		<Latitude>50.4803347</Latitude>
		<Longitude>15.6082286</Longitude>
	</record>
	<record>
		<id>140</id>
		<City>Az Ziyārah</City>
		<Country>Syria</Country>
		<Postal_Code />
		<Latitude>35.6907846</Latitude>
		<Longitude>36.3376199</Longitude>
	</record>
	<record>
		<id>141</id>
		<City>Guadalupe Victoria</City>
		<Country>Mexico</Country>
		<Postal_Code>87086</Postal_Code>
		<Latitude>32.28786</Latitude>
		<Longitude>-115.1046436</Longitude>
	</record>
	<record>
		<id>142</id>
		<City>Hai Riêng</City>
		<Country>Vietnam</Country>
		<Postal_Code />
		<Latitude>12.9881784</Latitude>
		<Longitude>108.8848569</Longitude>
	</record>
	<record>
		<id>143</id>
		<City>Lüjiabao</City>
		<Country>China</Country>
		<Postal_Code />
		<Latitude>34.470812</Latitude>
		<Longitude>103.982523</Longitude>
	</record>
	<record>
		<id>144</id>
		<City>Tangga</City>
		<Country>Indonesia</Country>
		<Postal_Code />
		<Latitude>-8.6508134</Latitude>
		<Longitude>118.7023068</Longitude>
	</record>
	<record>
		<id>145</id>
		<City>Ludvika</City>
		<Country>Sweden</Country>
		<Postal_Code>771 55</Postal_Code>
		<Latitude>60.1555962</Latitude>
		<Longitude>15.2372246</Longitude>
	</record>
	<record>
		<id>146</id>
		<City>Inanwatan</City>
		<Country>Indonesia</Country>
		<Postal_Code />
		<Latitude>-2.0883269</Latitude>
		<Longitude>132.1967716</Longitude>
	</record>
	<record>
		<id>147</id>
		<City>Encruzilhada do Sul</City>
		<Country>Brazil</Country>
		<Postal_Code>96610-000</Postal_Code>
		<Latitude>-30.5454936</Latitude>
		<Longitude>-52.5257016</Longitude>
	</record>
	<record>
		<id>148</id>
		<City>Roldanillo</City>
		<Country>Colombia</Country>
		<Postal_Code>761558</Postal_Code>
		<Latitude>4.4210661</Latitude>
		<Longitude>-76.1899661</Longitude>
	</record>
	<record>
		<id>149</id>
		<City>Ariquemes</City>
		<Country>Brazil</Country>
		<Postal_Code>78930-000</Postal_Code>
		<Latitude>-9.9227086</Latitude>
		<Longitude>-63.0384498</Longitude>
	</record>
	<record>
		<id>150</id>
		<City>Avignon</City>
		<Country>France</Country>
		<Postal_Code>84902 CEDEX 9</Postal_Code>
		<Latitude>47.5113895</Latitude>
		<Longitude>1.820875</Longitude>
	</record>
	<record>
		<id>151</id>
		<City>Mogzon</City>
		<Country>Russia</Country>
		<Postal_Code>613594</Postal_Code>
		<Latitude>51.7419091</Latitude>
		<Longitude>111.9603596</Longitude>
	</record>
	<record>
		<id>152</id>
		<City>Thị Trấn Quán Lào</City>
		<Country>Vietnam</Country>
		<Postal_Code />
		<Latitude>19.9699898</Latitude>
		<Longitude>105.6515167</Longitude>
	</record>
	<record>
		<id>153</id>
		<City>Lavia</City>
		<Country>Finland</Country>
		<Postal_Code>38601</Postal_Code>
		<Latitude>61.7664099</Latitude>
		<Longitude>22.4781721</Longitude>
	</record>
	<record>
		<id>154</id>
		<City>Guanban</City>
		<Country>China</Country>
		<Postal_Code />
		<Latitude>26.308284</Latitude>
		<Longitude>119.677154</Longitude>
	</record>
	<record>
		<id>155</id>
		<City>Chapayeve</City>
		<Country>Ukraine</Country>
		<Postal_Code />
		<Latitude>50.3250139</Latitude>
		<Longitude>34.9100068</Longitude>
	</record>
	<record>
		<id>156</id>
		<City>Gostivar</City>
		<Country>Macedonia</Country>
		<Postal_Code>1230</Postal_Code>
		<Latitude>41.8036152</Latitude>
		<Longitude>20.9182981</Longitude>
	</record>
	<record>
		<id>157</id>
		<City>San Juan</City>
		<Country>Argentina</Country>
		<Postal_Code>3611</Postal_Code>
		<Latitude>-38.0065623</Latitude>
		<Longitude>-57.5753755</Longitude>
	</record>
	<record>
		<id>158</id>
		<City>Santa Inês</City>
		<Country>Brazil</Country>
		<Postal_Code>86660-000</Postal_Code>
		<Latitude>-22.6926814</Latitude>
		<Longitude>-51.9051241</Longitude>
	</record>
	<record>
		<id>159</id>
		<City>Xixiang</City>
		<Country>China</Country>
		<Postal_Code />
		<Latitude>32.983101</Latitude>
		<Longitude>107.766613</Longitude>
	</record>
	<record>
		<id>160</id>
		<City>Shuangxiqiao</City>
		<Country>China</Country>
		<Postal_Code />
		<Latitude>29.020827</Latitude>
		<Longitude>110.637506</Longitude>
	</record>
	<record>
		<id>161</id>
		<City>Linares</City>
		<Country>Colombia</Country>
		<Postal_Code>522508</Postal_Code>
		<Latitude>1.350933</Latitude>
		<Longitude>-77.52387</Longitude>
	</record>
	<record>
		<id>162</id>
		<City>Przywidz</City>
		<Country>Poland</Country>
		<Postal_Code>83-047</Postal_Code>
		<Latitude>54.1949744</Latitude>
		<Longitude>18.3202769</Longitude>
	</record>
	<record>
		<id>163</id>
		<City>Sete Lagoas</City>
		<Country>Brazil</Country>
		<Postal_Code>35700-000</Postal_Code>
		<Latitude>-19.4545276</Latitude>
		<Longitude>-44.2515505</Longitude>
	</record>
	<record>
		<id>164</id>
		<City>Şalākhid</City>
		<Country>Syria</Country>
		<Postal_Code />
		<Latitude>32.8718172</Latitude>
		<Longitude>36.574293</Longitude>
	</record>
	<record>
		<id>165</id>
		<City>Sinjhoro</City>
		<Country>Pakistan</Country>
		<Postal_Code>68220</Postal_Code>
		<Latitude>26.0411298</Latitude>
		<Longitude>68.9203839</Longitude>
	</record>
	<record>
		<id>166</id>
		<City>Lyudinovo</City>
		<Country>Russia</Country>
		<Postal_Code>249406</Postal_Code>
		<Latitude>53.8638922</Latitude>
		<Longitude>34.4574753</Longitude>
	</record>
	<record>
		<id>167</id>
		<City>Naji</City>
		<Country>China</Country>
		<Postal_Code />
		<Latitude>24.176656</Latitude>
		<Longitude>107.349803</Longitude>
	</record>
	<record>
		<id>168</id>
		<City>Maonon</City>
		<Country>Philippines</Country>
		<Postal_Code>4402</Postal_Code>
		<Latitude>13.039074</Latitude>
		<Longitude>123.3697083</Longitude>
	</record>
	<record>
		<id>169</id>
		<City>Putrajaya</City>
		<Country>Malaysia</Country>
		<Postal_Code>62150</Postal_Code>
		<Latitude>2.9182648</Latitude>
		<Longitude>101.6982899</Longitude>
	</record>
	<record>
		<id>170</id>
		<City>Narew</City>
		<Country>Poland</Country>
		<Postal_Code>17-210</Postal_Code>
		<Latitude>52.9152117</Latitude>
		<Longitude>23.4961724</Longitude>
	</record>
	<record>
		<id>171</id>
		<City>Düsseldorf</City>
		<Country>Germany</Country>
		<Postal_Code>40225</Postal_Code>
		<Latitude>51.1974375</Latitude>
		<Longitude>6.7898817</Longitude>
	</record>
	<record>
		<id>172</id>
		<City>Oelui</City>
		<Country>Indonesia</Country>
		<Postal_Code />
		<Latitude>-6.3007596</Latitude>
		<Longitude>106.8329412</Longitude>
	</record>
	<record>
		<id>173</id>
		<City>Malabang</City>
		<Country>Philippines</Country>
		<Postal_Code>9300</Postal_Code>
		<Latitude>7.591829</Latitude>
		<Longitude>124.0735387</Longitude>
	</record>
	<record>
		<id>174</id>
		<City>San Miguel de Cauri</City>
		<Country>Peru</Country>
		<Postal_Code />
		<Latitude>-10.10712</Latitude>
		<Longitude>-76.601273</Longitude>
	</record>
	<record>
		<id>175</id>
		<City>Colomi</City>
		<Country>Bolivia</Country>
		<Postal_Code />
		<Latitude>-17.3399775</Latitude>
		<Longitude>-65.8649827</Longitude>
	</record>
	<record>
		<id>176</id>
		<City>Marsada</City>
		<Country>Philippines</Country>
		<Postal_Code>9215</Postal_Code>
		<Latitude>5.976337</Latitude>
		<Longitude>121.2234268</Longitude>
	</record>
	<record>
		<id>177</id>
		<City>Palma De Mallorca</City>
		<Country>Spain</Country>
		<Postal_Code>07121</Postal_Code>
		<Latitude>39.6343248</Latitude>
		<Longitude>2.631838</Longitude>
	</record>
	<record>
		<id>178</id>
		<City>Tajan</City>
		<Country>Indonesia</Country>
		<Postal_Code />
		<Latitude>-0.031303</Latitude>
		<Longitude>110.120499</Longitude>
	</record>
	<record>
		<id>179</id>
		<City>Kitale</City>
		<Country>Kenya</Country>
		<Postal_Code />
		<Latitude>1.019089</Latitude>
		<Longitude>35.0023048</Longitude>
	</record>
	<record>
		<id>180</id>
		<City>Kilim</City>
		<Country>Philippines</Country>
		<Postal_Code>6521</Postal_Code>
		<Latitude>10.729632</Latitude>
		<Longitude>124.795761</Longitude>
	</record>
	<record>
		<id>181</id>
		<City>Klapagading</City>
		<Country>Indonesia</Country>
		<Postal_Code />
		<Latitude>-6.1604549</Latitude>
		<Longitude>106.9054618</Longitude>
	</record>
	<record>
		<id>182</id>
		<City>Bonga</City>
		<Country>Philippines</Country>
		<Postal_Code>5504</Postal_Code>
		<Latitude>13.151121</Latitude>
		<Longitude>123.3047135</Longitude>
	</record>
	<record>
		<id>183</id>
		<City>Rudnik</City>
		<Country>Poland</Country>
		<Postal_Code>47-411</Postal_Code>
		<Latitude>50.1327056</Latitude>
		<Longitude>18.1543922</Longitude>
	</record>
	<record>
		<id>184</id>
		<City>Shentong</City>
		<Country>China</Country>
		<Postal_Code />
		<Latitude>35.8939566</Latitude>
		<Longitude>117.9249002</Longitude>
	</record>
	<record>
		<id>185</id>
		<City>Boka</City>
		<Country>Serbia</Country>
		<Postal_Code />
		<Latitude>45.3293893</Latitude>
		<Longitude>20.8278865</Longitude>
	</record>
	<record>
		<id>186</id>
		<City>Iwanuma</City>
		<Country>Japan</Country>
		<Postal_Code>299-4336</Postal_Code>
		<Latitude>35.4035493</Latitude>
		<Longitude>140.3449585</Longitude>
	</record>
	<record>
		<id>187</id>
		<City>Xiadian</City>
		<Country>China</Country>
		<Postal_Code />
		<Latitude>35.621965</Latitude>
		<Longitude>118.725698</Longitude>
	</record>
	<record>
		<id>188</id>
		<City>Dom Pedrito</City>
		<Country>Brazil</Country>
		<Postal_Code>96450-000</Postal_Code>
		<Latitude>-30.9738956</Latitude>
		<Longitude>-54.6847647</Longitude>
	</record>
	<record>
		<id>189</id>
		<City>Kawengan</City>
		<Country>Indonesia</Country>
		<Postal_Code />
		<Latitude>-6.944465</Latitude>
		<Longitude>111.4782661</Longitude>
	</record>
	<record>
		<id>190</id>
		<City>Fenggang</City>
		<Country>China</Country>
		<Postal_Code />
		<Latitude>22.746191</Latitude>
		<Longitude>114.136954</Longitude>
	</record>
	<record>
		<id>191</id>
		<City>Zudun</City>
		<Country>China</Country>
		<Postal_Code />
		<Latitude>27.648891</Latitude>
		<Longitude>118.698821</Longitude>
	</record>
	<record>
		<id>192</id>
		<City>Wesoła</City>
		<Country>Poland</Country>
		<Postal_Code>36-231</Postal_Code>
		<Latitude>50.2235249</Latitude>
		<Longitude>20.046495</Longitude>
	</record>
	<record>
		<id>193</id>
		<City>Macun</City>
		<Country>China</Country>
		<Postal_Code />
		<Latitude>35.256108</Latitude>
		<Longitude>113.322332</Longitude>
	</record>
	<record>
		<id>194</id>
		<City>Basicao Coastal</City>
		<Country>Philippines</Country>
		<Postal_Code>1267</Postal_Code>
		<Latitude>13.034203</Latitude>
		<Longitude>123.449929</Longitude>
	</record>
	<record>
		<id>195</id>
		<City>Sabana Grande de Boyá</City>
		<Country>Dominican Republic</Country>
		<Postal_Code>10136</Postal_Code>
		<Latitude>18.9436472</Latitude>
		<Longitude>-69.7912411</Longitude>
	</record>
	<record>
		<id>196</id>
		<City>Vostryakovo</City>
		<Country>Russia</Country>
		<Postal_Code>141662</Postal_Code>
		<Latitude>55.6613674</Latitude>
		<Longitude>37.4429397</Longitude>
	</record>
	<record>
		<id>197</id>
		<City>Luna</City>
		<Country>Philippines</Country>
		<Postal_Code>3813</Postal_Code>
		<Latitude>14.5968528</Latitude>
		<Longitude>121.0670507</Longitude>
	</record>
	<record>
		<id>198</id>
		<City>Leran Wetan</City>
		<Country>Indonesia</Country>
		<Postal_Code />
		<Latitude>-6.9219286</Latitude>
		<Longitude>112.1579249</Longitude>
	</record>
	<record>
		<id>199</id>
		<City>Ulanov</City>
		<Country>Ukraine</Country>
		<Postal_Code />
		<Latitude>49.6911273</Latitude>
		<Longitude>28.1308882</Longitude>
	</record>
	<record>
		<id>200</id>
		<City>Álimos</City>
		<Country>Greece</Country>
		<Postal_Code />
		<Latitude>37.9168548</Latitude>
		<Longitude>23.7186146</Longitude>
	</record>
	<record>
		<id>201</id>
		<City>Jämsänkoski</City>
		<Country>Finland</Country>
		<Postal_Code>42301</Postal_Code>
		<Latitude>61.8178084</Latitude>
		<Longitude>25.2322629</Longitude>
	</record>
	<record>
		<id>202</id>
		<City>Mogadishu</City>
		<Country>Somalia</Country>
		<Postal_Code />
		<Latitude>2.0469343</Latitude>
		<Longitude>45.3181623</Longitude>
	</record>
	<record>
		<id>203</id>
		<City>Norakert</City>
		<Country>Armenia</Country>
		<Postal_Code />
		<Latitude>40.2627673</Latitude>
		<Longitude>45.7004954</Longitude>
	</record>
	<record>
		<id>204</id>
		<City>Sarandë</City>
		<Country>Albania</Country>
		<Postal_Code />
		<Latitude>39.8592119</Latitude>
		<Longitude>20.0271001</Longitude>
	</record>
	<record>
		<id>205</id>
		<City>Uppsala</City>
		<Country>Sweden</Country>
		<Postal_Code>753 81</Postal_Code>
		<Latitude>59.853262</Latitude>
		<Longitude>17.6356163</Longitude>
	</record>
	<record>
		<id>206</id>
		<City>Torbay</City>
		<Country>Canada</Country>
		<Postal_Code>A1K</Postal_Code>
		<Latitude>47.6593594</Latitude>
		<Longitude>-52.7383086</Longitude>
	</record>
	<record>
		<id>207</id>
		<City>Zhifang</City>
		<Country>China</Country>
		<Postal_Code />
		<Latitude>35.2901</Latitude>
		<Longitude>116.317369</Longitude>
	</record>
	<record>
		<id>208</id>
		<City>Rakai</City>
		<Country>Uganda</Country>
		<Postal_Code />
		<Latitude>-0.7069135</Latitude>
		<Longitude>31.5370003</Longitude>
	</record>
	<record>
		<id>209</id>
		<City>Camagüey</City>
		<Country>Cuba</Country>
		<Postal_Code />
		<Latitude>21.3926035</Latitude>
		<Longitude>-77.9053182</Longitude>
	</record>
	<record>
		<id>210</id>
		<City>Taiobeiras</City>
		<Country>Brazil</Country>
		<Postal_Code>39550-000</Postal_Code>
		<Latitude>-15.8142935</Latitude>
		<Longitude>-42.227378</Longitude>
	</record>
	<record>
		<id>211</id>
		<City>Vysehrad</City>
		<Country>Czech Republic</Country>
		<Postal_Code>181 00</Postal_Code>
		<Latitude>50.0644155</Latitude>
		<Longitude>14.4200237</Longitude>
	</record>
	<record>
		<id>212</id>
		<City>Jielin</City>
		<Country>China</Country>
		<Postal_Code />
		<Latitude>43.1520105</Latitude>
		<Longitude>126.4371385</Longitude>
	</record>
	<record>
		<id>213</id>
		<City>Swindon</City>
		<Country>United Kingdom</Country>
		<Postal_Code>SN1</Postal_Code>
		<Latitude>51.5487433</Latitude>
		<Longitude>-1.7880953</Longitude>
	</record>
	<record>
		<id>214</id>
		<City>Coroatá</City>
		<Country>Brazil</Country>
		<Postal_Code>65415-000</Postal_Code>
		<Latitude>-4.055821</Latitude>
		<Longitude>-44.1720266</Longitude>
	</record>
	<record>
		<id>215</id>
		<City>San Rafael</City>
		<Country>Argentina</Country>
		<Postal_Code>5600</Postal_Code>
		<Latitude>-34.6143394</Latitude>
		<Longitude>-68.3426534</Longitude>
	</record>
	<record>
		<id>216</id>
		<City>Bujanovac</City>
		<Country>Serbia</Country>
		<Postal_Code />
		<Latitude>42.4609263</Latitude>
		<Longitude>21.7662019</Longitude>
	</record>
	<record>
		<id>217</id>
		<City>Vernon</City>
		<Country>France</Country>
		<Postal_Code>27204 CEDEX</Postal_Code>
		<Latitude>49.0915297</Latitude>
		<Longitude>1.4784611</Longitude>
	</record>
	<record>
		<id>218</id>
		<City>Budapest</City>
		<Country>Hungary</Country>
		<Postal_Code>1035</Postal_Code>
		<Latitude>47.545979</Latitude>
		<Longitude>19.0375319</Longitude>
	</record>
	<record>
		<id>219</id>
		<City>Tiassalé</City>
		<Country>Ivory Coast</Country>
		<Postal_Code />
		<Latitude>5.9042627</Latitude>
		<Longitude>-4.8261424</Longitude>
	</record>
	<record>
		<id>220</id>
		<City>Leticia</City>
		<Country>Peru</Country>
		<Postal_Code />
		<Latitude>-11.3826999</Latitude>
		<Longitude>-75.7560455</Longitude>
	</record>
	<record>
		<id>221</id>
		<City>Tapera</City>
		<Country>Brazil</Country>
		<Postal_Code>99490-000</Postal_Code>
		<Latitude>-28.6229959</Latitude>
		<Longitude>-52.8711249</Longitude>
	</record>
	<record>
		<id>222</id>
		<City>Helvecia</City>
		<Country>Argentina</Country>
		<Postal_Code>3003</Postal_Code>
		<Latitude>-34.6950382</Latitude>
		<Longitude>-58.6575429</Longitude>
	</record>
	<record>
		<id>223</id>
		<City>Katagum</City>
		<Country>Nigeria</Country>
		<Postal_Code />
		<Latitude>12.289736</Latitude>
		<Longitude>10.3525964</Longitude>
	</record>
	<record>
		<id>224</id>
		<City>Mburukullu</City>
		<Country>Indonesia</Country>
		<Postal_Code />
		<Latitude>-10.0776</Latitude>
		<Longitude>120.7569</Longitude>
	</record>
	<record>
		<id>225</id>
		<City>Wulan</City>
		<Country>China</Country>
		<Postal_Code />
		<Latitude>36.929749</Latitude>
		<Longitude>98.480195</Longitude>
	</record>
	<record>
		<id>226</id>
		<City>Balaogan</City>
		<Country>Philippines</Country>
		<Postal_Code>8404</Postal_Code>
		<Latitude>13.4291</Latitude>
		<Longitude>123.279</Longitude>
	</record>
	<record>
		<id>227</id>
		<City>Banatsko Karađorđevo</City>
		<Country>Serbia</Country>
		<Postal_Code />
		<Latitude>45.5730726</Latitude>
		<Longitude>20.5777248</Longitude>
	</record>
	<record>
		<id>228</id>
		<City>Qalyūb</City>
		<Country>Egypt</Country>
		<Postal_Code />
		<Latitude>30.1762897</Latitude>
		<Longitude>31.2067851</Longitude>
	</record>
	<record>
		<id>229</id>
		<City>Pasarkuok</City>
		<Country>Indonesia</Country>
		<Postal_Code />
		<Latitude>-1.445213</Latitude>
		<Longitude>100.630898</Longitude>
	</record>
	<record>
		<id>230</id>
		<City>Balauring</City>
		<Country>Indonesia</Country>
		<Postal_Code />
		<Latitude>-8.2864014</Latitude>
		<Longitude>123.7014716</Longitude>
	</record>
	<record>
		<id>231</id>
		<City>Żórawina</City>
		<Country>Poland</Country>
		<Postal_Code>55-020</Postal_Code>
		<Latitude>50.9811092</Latitude>
		<Longitude>17.0357954</Longitude>
	</record>
	<record>
		<id>232</id>
		<City>Bijelo Polje</City>
		<Country>Montenegro</Country>
		<Postal_Code />
		<Latitude>43.0369422</Latitude>
		<Longitude>19.7561911</Longitude>
	</record>
	<record>
		<id>233</id>
		<City>Miratejo</City>
		<Country>Portugal</Country>
		<Postal_Code>2855-188</Postal_Code>
		<Latitude>38.6459249</Latitude>
		<Longitude>-9.1453534</Longitude>
	</record>
	<record>
		<id>234</id>
		<City>Changping</City>
		<Country>China</Country>
		<Postal_Code />
		<Latitude>22.974898</Latitude>
		<Longitude>113.993115</Longitude>
	</record>
	<record>
		<id>235</id>
		<City>Windsor</City>
		<Country>Canada</Country>
		<Postal_Code>J1S</Postal_Code>
		<Latitude>45.5787215</Latitude>
		<Longitude>-72.001055</Longitude>
	</record>
	<record>
		<id>236</id>
		<City>Slovenski Javornik</City>
		<Country>Slovenia</Country>
		<Postal_Code>4274</Postal_Code>
		<Latitude>46.426574</Latitude>
		<Longitude>14.0833019</Longitude>
	</record>
	<record>
		<id>237</id>
		<City>Fengshan</City>
		<Country>China</Country>
		<Postal_Code />
		<Latitude>24.546876</Latitude>
		<Longitude>107.04219</Longitude>
	</record>
	<record>
		<id>238</id>
		<City>Elista</City>
		<Country>Russia</Country>
		<Postal_Code>358015</Postal_Code>
		<Latitude>46.3033966</Latitude>
		<Longitude>44.1911993</Longitude>
	</record>
	<record>
		<id>239</id>
		<City>Wiślica</City>
		<Country>Poland</Country>
		<Postal_Code>28-160</Postal_Code>
		<Latitude>50.3483062</Latitude>
		<Longitude>20.6741631</Longitude>
	</record>
	<record>
		<id>240</id>
		<City>Guaimaca</City>
		<Country>Honduras</Country>
		<Postal_Code />
		<Latitude>14.549965</Latitude>
		<Longitude>-86.8270545</Longitude>
	</record>
	<record>
		<id>241</id>
		<City>Pitumarca</City>
		<Country>Peru</Country>
		<Postal_Code />
		<Latitude>-13.9792358</Latitude>
		<Longitude>-71.4165779</Longitude>
	</record>
	<record>
		<id>242</id>
		<City>Talmest</City>
		<Country>Morocco</Country>
		<Postal_Code />
		<Latitude>31.8127435</Latitude>
		<Longitude>-9.3381766</Longitude>
	</record>
	<record>
		<id>243</id>
		<City>Church End</City>
		<Country>United Kingdom</Country>
		<Postal_Code>CB4</Postal_Code>
		<Latitude>52.216745</Latitude>
		<Longitude>0.1405602</Longitude>
	</record>
	<record>
		<id>244</id>
		<City>Dek’emhāre</City>
		<Country>Eritrea</Country>
		<Postal_Code />
		<Latitude>15.0712647</Latitude>
		<Longitude>39.0450242</Longitude>
	</record>
	<record>
		<id>245</id>
		<City>Żabbar</City>
		<Country>Malta</Country>
		<Postal_Code>ZBR</Postal_Code>
		<Latitude>35.877092</Latitude>
		<Longitude>14.544192</Longitude>
	</record>
	<record>
		<id>246</id>
		<City>Iktābah</City>
		<Country>Palestinian Territory</Country>
		<Postal_Code />
		<Latitude>32.3266</Latitude>
		<Longitude>35.05262</Longitude>
	</record>
	<record>
		<id>247</id>
		<City>Richmond</City>
		<Country>United States</Country>
		<Postal_Code>23272</Postal_Code>
		<Latitude>37.9416306</Latitude>
		<Longitude>-77.3484049</Longitude>
	</record>
	<record>
		<id>248</id>
		<City>Quetigny</City>
		<Country>France</Country>
		<Postal_Code>21806 CEDEX</Postal_Code>
		<Latitude>47.3097201</Latitude>
		<Longitude>5.1041811</Longitude>
	</record>
	<record>
		<id>249</id>
		<City>Galatás</City>
		<Country>Greece</Country>
		<Postal_Code />
		<Latitude>37.4968471</Latitude>
		<Longitude>23.447887</Longitude>
	</record>
	<record>
		<id>250</id>
		<City>Kalyny</City>
		<Country>Ukraine</Country>
		<Postal_Code />
		<Latitude>48.1417959</Latitude>
		<Longitude>23.8730183</Longitude>
	</record>
	<record>
		<id>251</id>
		<City>Jõgeva</City>
		<Country>Estonia</Country>
		<Postal_Code />
		<Latitude>58.7462917</Latitude>
		<Longitude>26.3972118</Longitude>
	</record>
	<record>
		<id>252</id>
		<City>Murmino</City>
		<Country>Russia</Country>
		<Postal_Code>390528</Postal_Code>
		<Latitude>54.6053915</Latitude>
		<Longitude>40.0487656</Longitude>
	</record>
	<record>
		<id>253</id>
		<City>Dalam</City>
		<Country>Indonesia</Country>
		<Postal_Code />
		<Latitude>-0.789275</Latitude>
		<Longitude>113.921327</Longitude>
	</record>
	<record>
		<id>254</id>
		<City>Boji</City>
		<Country>China</Country>
		<Postal_Code />
		<Latitude>34.363184</Latitude>
		<Longitude>107.237743</Longitude>
	</record>
	<record>
		<id>255</id>
		<City>Calzada Larga</City>
		<Country>Panama</Country>
		<Postal_Code />
		<Latitude>9.1742107</Latitude>
		<Longitude>-79.5687728</Longitude>
	</record>
	<record>
		<id>256</id>
		<City>Vangaindrano</City>
		<Country>Madagascar</Country>
		<Postal_Code />
		<Latitude>-23.3505295</Latitude>
		<Longitude>47.5914122</Longitude>
	</record>
	<record>
		<id>257</id>
		<City>Shanxia</City>
		<Country>China</Country>
		<Postal_Code />
		<Latitude>37.2425649</Latitude>
		<Longitude>111.8568586</Longitude>
	</record>
	<record>
		<id>258</id>
		<City>Enonkoski</City>
		<Country>Finland</Country>
		<Postal_Code>58175</Postal_Code>
		<Latitude>62.0893368</Latitude>
		<Longitude>28.9160917</Longitude>
	</record>
	<record>
		<id>259</id>
		<City>Lakbok</City>
		<Country>Indonesia</Country>
		<Postal_Code />
		<Latitude>-7.40638</Latitude>
		<Longitude>108.6591293</Longitude>
	</record>
	<record>
		<id>260</id>
		<City>Ajoyani</City>
		<Country>Peru</Country>
		<Postal_Code />
		<Latitude>-14.1</Latitude>
		<Longitude>-70.2</Longitude>
	</record>
	<record>
		<id>261</id>
		<City>Bykhaw</City>
		<Country>Belarus</Country>
		<Postal_Code />
		<Latitude>53.5180441</Latitude>
		<Longitude>30.2402914</Longitude>
	</record>
	<record>
		<id>262</id>
		<City>Itápolis</City>
		<Country>Brazil</Country>
		<Postal_Code>14900-000</Postal_Code>
		<Latitude>-21.5950536</Latitude>
		<Longitude>-48.8163705</Longitude>
	</record>
	<record>
		<id>263</id>
		<City>Beaumont</City>
		<Country>United States</Country>
		<Postal_Code>77713</Postal_Code>
		<Latitude>30.0435239</Latitude>
		<Longitude>-94.2743628</Longitude>
	</record>
	<record>
		<id>264</id>
		<City>Shantoudian</City>
		<Country>China</Country>
		<Postal_Code />
		<Latitude>32.644699</Latitude>
		<Longitude>117.743378</Longitude>
	</record>
	<record>
		<id>265</id>
		<City>Banjar Danginsema</City>
		<Country>Indonesia</Country>
		<Postal_Code />
		<Latitude>-8.4513</Latitude>
		<Longitude>115.6162</Longitude>
	</record>
	<record>
		<id>266</id>
		<City>‘Attīl</City>
		<Country>Palestinian Territory</Country>
		<Postal_Code />
		<Latitude>32.370069</Latitude>
		<Longitude>35.072538</Longitude>
	</record>
	<record>
		<id>267</id>
		<City>Bayuwan</City>
		<Country>Indonesia</Country>
		<Postal_Code />
		<Latitude>-8.2190944</Latitude>
		<Longitude>114.3691416</Longitude>
	</record>
	<record>
		<id>268</id>
		<City>Qırmızı Samux</City>
		<Country>Azerbaijan</Country>
		<Postal_Code />
		<Latitude>40.9392676</Latitude>
		<Longitude>46.3748931</Longitude>
	</record>
	<record>
		<id>269</id>
		<City>Borås</City>
		<Country>Sweden</Country>
		<Postal_Code>506 46</Postal_Code>
		<Latitude>57.7500731</Latitude>
		<Longitude>12.9485476</Longitude>
	</record>
	<record>
		<id>270</id>
		<City>Esquipulas Palo Gordo</City>
		<Country>Guatemala</Country>
		<Postal_Code>12027</Postal_Code>
		<Latitude>14.9417812</Latitude>
		<Longitude>-91.8252028</Longitude>
	</record>
	<record>
		<id>271</id>
		<City>Wenling</City>
		<Country>China</Country>
		<Postal_Code />
		<Latitude>28.372506</Latitude>
		<Longitude>121.385604</Longitude>
	</record>
	<record>
		<id>272</id>
		<City>Duy Xuyên</City>
		<Country>Vietnam</Country>
		<Postal_Code />
		<Latitude>15.77511</Latitude>
		<Longitude>108.1665855</Longitude>
	</record>
	<record>
		<id>273</id>
		<City>Adolfo Lopez Mateos</City>
		<Country>Mexico</Country>
		<Postal_Code>56528</Postal_Code>
		<Latitude>19.3852368</Latitude>
		<Longitude>-98.9545512</Longitude>
	</record>
	<record>
		<id>274</id>
		<City>Shifang</City>
		<Country>China</Country>
		<Postal_Code />
		<Latitude>31.12678</Latitude>
		<Longitude>104.167501</Longitude>
	</record>
	<record>
		<id>275</id>
		<City>Zoetermeer</City>
		<Country>Netherlands</Country>
		<Postal_Code>2720</Postal_Code>
		<Latitude>52.0625106</Latitude>
		<Longitude>4.4911369</Longitude>
	</record>
	<record>
		<id>276</id>
		<City>Āsmār</City>
		<Country>Afghanistan</Country>
		<Postal_Code />
		<Latitude>35.0298547</Latitude>
		<Longitude>71.3542319</Longitude>
	</record>
	<record>
		<id>277</id>
		<City>Shahe</City>
		<Country>China</Country>
		<Postal_Code />
		<Latitude>36.854929</Latitude>
		<Longitude>114.503339</Longitude>
	</record>
	<record>
		<id>278</id>
		<City>Viale</City>
		<Country>Argentina</Country>
		<Postal_Code>3109</Postal_Code>
		<Latitude>-33.326671</Latitude>
		<Longitude>-60.2336692</Longitude>
	</record>
	<record>
		<id>279</id>
		<City>Sirghāyā</City>
		<Country>Syria</Country>
		<Postal_Code />
		<Latitude>33.811128</Latitude>
		<Longitude>36.1572559</Longitude>
	</record>
	<record>
		<id>280</id>
		<City>Xinzhou</City>
		<Country>China</Country>
		<Postal_Code />
		<Latitude>38.416663</Latitude>
		<Longitude>112.734174</Longitude>
	</record>
	<record>
		<id>281</id>
		<City>Matabao</City>
		<Country>Philippines</Country>
		<Postal_Code>8601</Postal_Code>
		<Latitude>9.9241833</Latitude>
		<Longitude>123.9181504</Longitude>
	</record>
	<record>
		<id>282</id>
		<City>Baimaqiao</City>
		<Country>China</Country>
		<Postal_Code />
		<Latitude>26.0536124</Latitude>
		<Longitude>119.2989496</Longitude>
	</record>
	<record>
		<id>283</id>
		<City>Kaburon</City>
		<Country>Indonesia</Country>
		<Postal_Code />
		<Latitude>-6.245333</Latitude>
		<Longitude>106.804332</Longitude>
	</record>
	<record>
		<id>284</id>
		<City>Hellevoetsluis</City>
		<Country>Netherlands</Country>
		<Postal_Code>3224</Postal_Code>
		<Latitude>51.8281611</Latitude>
		<Longitude>4.1481143</Longitude>
	</record>
	<record>
		<id>285</id>
		<City>Okanagan</City>
		<Country>Canada</Country>
		<Postal_Code>T0P</Postal_Code>
		<Latitude>49.8531509</Latitude>
		<Longitude>-119.611543</Longitude>
	</record>
	<record>
		<id>286</id>
		<City>Oliveira de Frades</City>
		<Country>Portugal</Country>
		<Postal_Code>3680-077</Postal_Code>
		<Latitude>40.7322554</Latitude>
		<Longitude>-8.1737805</Longitude>
	</record>
	<record>
		<id>287</id>
		<City>Biliran</City>
		<Country>Philippines</Country>
		<Postal_Code>6549</Postal_Code>
		<Latitude>11.5358447</Latitude>
		<Longitude>124.4553581</Longitude>
	</record>
	<record>
		<id>288</id>
		<City>Palatine</City>
		<Country>United States</Country>
		<Postal_Code>60078</Postal_Code>
		<Latitude>42.1165506</Latitude>
		<Longitude>-88.0549221</Longitude>
	</record>
	<record>
		<id>289</id>
		<City>La Salud</City>
		<Country>Cuba</Country>
		<Postal_Code />
		<Latitude>22.8564518</Latitude>
		<Longitude>-82.4211025</Longitude>
	</record>
	<record>
		<id>290</id>
		<City>Topdac</City>
		<Country>Philippines</Country>
		<Postal_Code>2612</Postal_Code>
		<Latitude>16.5552946</Latitude>
		<Longitude>120.7109206</Longitude>
	</record>
	<record>
		<id>291</id>
		<City>Sandaohezi</City>
		<Country>China</Country>
		<Postal_Code />
		<Latitude>44.335532</Latitude>
		<Longitude>85.625121</Longitude>
	</record>
	<record>
		<id>292</id>
		<City>Villa del Rosario</City>
		<Country>Colombia</Country>
		<Postal_Code>541038</Postal_Code>
		<Latitude>7.6834821</Latitude>
		<Longitude>-72.4909026</Longitude>
	</record>
	<record>
		<id>293</id>
		<City>Lusambo</City>
		<Country>Democratic Republic of the Congo</Country>
		<Postal_Code />
		<Latitude>-4.9652806</Latitude>
		<Longitude>23.4478441</Longitude>
	</record>
	<record>
		<id>294</id>
		<City>Drybin</City>
		<Country>Belarus</Country>
		<Postal_Code />
		<Latitude>54.1190657</Latitude>
		<Longitude>31.1014304</Longitude>
	</record>
	<record>
		<id>295</id>
		<City>Nay Pyi Taw</City>
		<Country>Myanmar</Country>
		<Postal_Code />
		<Latitude>19.7633057</Latitude>
		<Longitude>96.0785104</Longitude>
	</record>
	<record>
		<id>296</id>
		<City>Jalālābād</City>
		<Country>Afghanistan</Country>
		<Postal_Code />
		<Latitude>34.4198488</Latitude>
		<Longitude>70.4729434</Longitude>
	</record>
	<record>
		<id>297</id>
		<City>Xiangtang</City>
		<Country>China</Country>
		<Postal_Code />
		<Latitude>28.430921</Latitude>
		<Longitude>115.969683</Longitude>
	</record>
	<record>
		<id>298</id>
		<City>Sechenovo</City>
		<Country>Russia</Country>
		<Postal_Code>607580</Postal_Code>
		<Latitude>55.224467</Latitude>
		<Longitude>45.8810866</Longitude>
	</record>
	<record>
		<id>299</id>
		<City>Methven</City>
		<Country>New Zealand</Country>
		<Postal_Code>7745</Postal_Code>
		<Latitude>-43.6337764</Latitude>
		<Longitude>171.6468521</Longitude>
	</record>
	<record>
		<id>300</id>
		<City>Goričan</City>
		<Country>Croatia</Country>
		<Postal_Code>40324</Postal_Code>
		<Latitude>46.3899032</Latitude>
		<Longitude>16.6974271</Longitude>
	</record>
	<record>
		<id>301</id>
		<City>Nevel’sk</City>
		<Country>Russia</Country>
		<Postal_Code>694752</Postal_Code>
		<Latitude>46.678613</Latitude>
		<Longitude>141.8559579</Longitude>
	</record>
	<record>
		<id>302</id>
		<City>Bojongaren</City>
		<Country>Indonesia</Country>
		<Postal_Code />
		<Latitude>-7.6445</Latitude>
		<Longitude>108.6451</Longitude>
	</record>
	<record>
		<id>303</id>
		<City>Atlanta</City>
		<Country>United States</Country>
		<Postal_Code>31165</Postal_Code>
		<Latitude>29.4390958</Latitude>
		<Longitude>-98.487335</Longitude>
	</record>
	<record>
		<id>304</id>
		<City>Mjölby</City>
		<Country>Sweden</Country>
		<Postal_Code>595 52</Postal_Code>
		<Latitude>58.3209912</Latitude>
		<Longitude>15.1341949</Longitude>
	</record>
	<record>
		<id>305</id>
		<City>Cururupu</City>
		<Country>Brazil</Country>
		<Postal_Code>65268-000</Postal_Code>
		<Latitude>-1.8867371</Latitude>
		<Longitude>-44.813111</Longitude>
	</record>
	<record>
		<id>306</id>
		<City>Agua Fría</City>
		<Country>Honduras</Country>
		<Postal_Code />
		<Latitude>13.4710669</Latitude>
		<Longitude>-87.5470024</Longitude>
	</record>
	<record>
		<id>307</id>
		<City>Kandete</City>
		<Country>Tanzania</Country>
		<Postal_Code />
		<Latitude>-9.147484</Latitude>
		<Longitude>33.79272</Longitude>
	</record>
	<record>
		<id>308</id>
		<City>Barcin</City>
		<Country>Poland</Country>
		<Postal_Code>88-193</Postal_Code>
		<Latitude>52.8769629</Latitude>
		<Longitude>17.950135</Longitude>
	</record>
	<record>
		<id>309</id>
		<City>Santa Iria de Azóia</City>
		<Country>Portugal</Country>
		<Postal_Code>2690-147</Postal_Code>
		<Latitude>38.8403484</Latitude>
		<Longitude>-9.1062978</Longitude>
	</record>
	<record>
		<id>310</id>
		<City>La Playosa</City>
		<Country>Argentina</Country>
		<Postal_Code>5911</Postal_Code>
		<Latitude>-32.0974801</Latitude>
		<Longitude>-63.0334803</Longitude>
	</record>
	<record>
		<id>311</id>
		<City>Sigu</City>
		<Country>China</Country>
		<Postal_Code />
		<Latitude>28.9693852</Latitude>
		<Longitude>119.8453914</Longitude>
	</record>
	<record>
		<id>312</id>
		<City>Itigi</City>
		<Country>Tanzania</Country>
		<Postal_Code />
		<Latitude>-5.706302</Latitude>
		<Longitude>34.4946697</Longitude>
	</record>
	<record>
		<id>313</id>
		<City>Cimahi</City>
		<Country>Indonesia</Country>
		<Postal_Code />
		<Latitude>-6.8840816</Latitude>
		<Longitude>107.5413039</Longitude>
	</record>
	<record>
		<id>314</id>
		<City>Ojo de Agua</City>
		<Country>Mexico</Country>
		<Postal_Code>58353</Postal_Code>
		<Latitude>19.6775122</Latitude>
		<Longitude>-99.0329594</Longitude>
	</record>
	<record>
		<id>315</id>
		<City>Mīr Bachah Kōṯ</City>
		<Country>Afghanistan</Country>
		<Postal_Code />
		<Latitude>34.6982972</Latitude>
		<Longitude>69.2758336</Longitude>
	</record>
	<record>
		<id>316</id>
		<City>Skotoússa</City>
		<Country>Greece</Country>
		<Postal_Code />
		<Latitude>41.1266172</Latitude>
		<Longitude>23.3819761</Longitude>
	</record>
	<record>
		<id>317</id>
		<City>Rueil-Malmaison</City>
		<Country>France</Country>
		<Postal_Code>92848 CEDEX</Postal_Code>
		<Latitude>48.8708001</Latitude>
		<Longitude>2.166848</Longitude>
	</record>
	<record>
		<id>318</id>
		<City>Curug</City>
		<Country>Indonesia</Country>
		<Postal_Code />
		<Latitude>-6.1869527</Latitude>
		<Longitude>106.1698563</Longitude>
	</record>
	<record>
		<id>319</id>
		<City>Vrakháti</City>
		<Country>Greece</Country>
		<Postal_Code />
		<Latitude>37.9578061</Latitude>
		<Longitude>22.8039689</Longitude>
	</record>
	<record>
		<id>320</id>
		<City>Purísima</City>
		<Country>Colombia</Country>
		<Postal_Code>231547</Postal_Code>
		<Latitude>9.236872</Latitude>
		<Longitude>-75.723394</Longitude>
	</record>
	<record>
		<id>321</id>
		<City>Providencia</City>
		<Country>Colombia</Country>
		<Postal_Code>880028</Postal_Code>
		<Latitude>13.3875121</Latitude>
		<Longitude>-81.3756862</Longitude>
	</record>
	<record>
		<id>322</id>
		<City>Miami</City>
		<Country>United States</Country>
		<Postal_Code>33147</Postal_Code>
		<Latitude>25.84791</Latitude>
		<Longitude>-80.2377078</Longitude>
	</record>
	<record>
		<id>323</id>
		<City>Yushan</City>
		<Country>China</Country>
		<Postal_Code />
		<Latitude>28.682309</Latitude>
		<Longitude>118.244769</Longitude>
	</record>
	<record>
		<id>324</id>
		<City>Prachuap Khiri Khan</City>
		<Country>Thailand</Country>
		<Postal_Code>77120</Postal_Code>
		<Latitude>12.3958358</Latitude>
		<Longitude>99.8571416</Longitude>
	</record>
	<record>
		<id>325</id>
		<City>Varge Mondar</City>
		<Country>Portugal</Country>
		<Postal_Code>2635-483</Postal_Code>
		<Latitude>38.7554084</Latitude>
		<Longitude>-9.3408903</Longitude>
	</record>
	<record>
		<id>326</id>
		<City>Palmar de Varela</City>
		<Country>Colombia</Country>
		<Postal_Code>083087</Postal_Code>
		<Latitude>10.74044</Latitude>
		<Longitude>-74.755272</Longitude>
	</record>
	<record>
		<id>327</id>
		<City>Sâmraông</City>
		<Country>Cambodia</Country>
		<Postal_Code />
		<Latitude>14.2198555</Latitude>
		<Longitude>103.5899733</Longitude>
	</record>
	<record>
		<id>328</id>
		<City>Longford</City>
		<Country>Ireland</Country>
		<Postal_Code>N39</Postal_Code>
		<Latitude>53.7283566</Latitude>
		<Longitude>-7.8004329</Longitude>
	</record>
	<record>
		<id>329</id>
		<City>Calmar</City>
		<Country>Canada</Country>
		<Postal_Code>S0G</Postal_Code>
		<Latitude>53.26683</Latitude>
		<Longitude>-113.81874</Longitude>
	</record>
	<record>
		<id>330</id>
		<City>Aguilar</City>
		<Country>Philippines</Country>
		<Postal_Code>2415</Postal_Code>
		<Latitude>14.2352143</Latitude>
		<Longitude>120.9428391</Longitude>
	</record>
	<record>
		<id>331</id>
		<City>Shcherbinka</City>
		<Country>Russia</Country>
		<Postal_Code>142720</Postal_Code>
		<Latitude>55.536259</Latitude>
		<Longitude>37.5985159</Longitude>
	</record>
	<record>
		<id>332</id>
		<City>Jevremovac</City>
		<Country>Serbia</Country>
		<Postal_Code />
		<Latitude>44.8158674</Latitude>
		<Longitude>20.4734419</Longitude>
	</record>
	<record>
		<id>333</id>
		<City>Bringinanom</City>
		<Country>Indonesia</Country>
		<Postal_Code />
		<Latitude>-7.3697672</Latitude>
		<Longitude>112.5125893</Longitude>
	</record>
	<record>
		<id>334</id>
		<City>El Cuy</City>
		<Country>Argentina</Country>
		<Postal_Code>8333</Postal_Code>
		<Latitude>-31.3366412</Latitude>
		<Longitude>-64.3060567</Longitude>
	</record>
	<record>
		<id>335</id>
		<City>Suka Makmue</City>
		<Country>Indonesia</Country>
		<Postal_Code />
		<Latitude>4.1772002</Latitude>
		<Longitude>96.3119743</Longitude>
	</record>
	<record>
		<id>336</id>
		<City>São Pedro</City>
		<Country>Brazil</Country>
		<Postal_Code>13520-000</Postal_Code>
		<Latitude>-22.5487399</Latitude>
		<Longitude>-47.9100329</Longitude>
	</record>
	<record>
		<id>337</id>
		<City>Rado</City>
		<Country>Indonesia</Country>
		<Postal_Code />
		<Latitude>-6.2271384</Latitude>
		<Longitude>106.7968708</Longitude>
	</record>
	<record>
		<id>338</id>
		<City>Helvecia</City>
		<Country>Argentina</Country>
		<Postal_Code>3003</Postal_Code>
		<Latitude>-34.6950382</Latitude>
		<Longitude>-58.6575429</Longitude>
	</record>
	<record>
		<id>339</id>
		<City>Postupice</City>
		<Country>Czech Republic</Country>
		<Postal_Code>257 01</Postal_Code>
		<Latitude>49.727987</Latitude>
		<Longitude>14.7772237</Longitude>
	</record>
	<record>
		<id>340</id>
		<City>Santa Elena</City>
		<Country>Mexico</Country>
		<Postal_Code>30807</Postal_Code>
		<Latitude>20.3278427</Latitude>
		<Longitude>-89.6440716</Longitude>
	</record>
	<record>
		<id>341</id>
		<City>Jiuzhai</City>
		<Country>China</Country>
		<Postal_Code />
		<Latitude>33.2600421</Latitude>
		<Longitude>103.9185994</Longitude>
	</record>
	<record>
		<id>342</id>
		<City>Magsaysay</City>
		<Country>Philippines</Country>
		<Postal_Code>9221</Postal_Code>
		<Latitude>14.6031411</Latitude>
		<Longitude>121.0959448</Longitude>
	</record>
	<record>
		<id>343</id>
		<City>Karangwaru</City>
		<Country>Indonesia</Country>
		<Postal_Code />
		<Latitude>-7.7736143</Latitude>
		<Longitude>110.3643938</Longitude>
	</record>
	<record>
		<id>344</id>
		<City>Shiki</City>
		<Country>Japan</Country>
		<Postal_Code>863-2503</Postal_Code>
		<Latitude>32.5126481</Latitude>
		<Longitude>130.0510793</Longitude>
	</record>
	<record>
		<id>345</id>
		<City>Sandviken</City>
		<Country>Sweden</Country>
		<Postal_Code>811 53</Postal_Code>
		<Latitude>60.601518</Latitude>
		<Longitude>16.7485695</Longitude>
	</record>
	<record>
		<id>346</id>
		<City>Mondokan</City>
		<Country>Indonesia</Country>
		<Postal_Code />
		<Latitude>-7.3072726</Latitude>
		<Longitude>110.9387418</Longitude>
	</record>
	<record>
		<id>347</id>
		<City>Xiashitai</City>
		<Country>China</Country>
		<Postal_Code />
		<Latitude>24.02009</Latitude>
		<Longitude>113.4221</Longitude>
	</record>
	<record>
		<id>348</id>
		<City>Barra de Carrasco</City>
		<Country>Uruguay</Country>
		<Postal_Code />
		<Latitude>-34.8681929</Latitude>
		<Longitude>-56.0333596</Longitude>
	</record>
	<record>
		<id>349</id>
		<City>Aibura</City>
		<Country>Indonesia</Country>
		<Postal_Code />
		<Latitude>-8.6797285</Latitude>
		<Longitude>122.3504283</Longitude>
	</record>
	<record>
		<id>350</id>
		<City>Berlin</City>
		<Country>Germany</Country>
		<Postal_Code>13088</Postal_Code>
		<Latitude>52.5593051</Latitude>
		<Longitude>13.4761485</Longitude>
	</record>
	<record>
		<id>351</id>
		<City>Phra Nakhon Si Ayutthaya</City>
		<Country>Thailand</Country>
		<Postal_Code>13120</Postal_Code>
		<Latitude>14.4403155</Latitude>
		<Longitude>100.383479</Longitude>
	</record>
	<record>
		<id>352</id>
		<City>Batumi</City>
		<Country>Georgia</Country>
		<Postal_Code />
		<Latitude>41.6167547</Latitude>
		<Longitude>41.6367455</Longitude>
	</record>
	<record>
		<id>353</id>
		<City>Sharkawshchyna</City>
		<Country>Belarus</Country>
		<Postal_Code />
		<Latitude>55.3682716</Latitude>
		<Longitude>27.4703402</Longitude>
	</record>
	<record>
		<id>354</id>
		<City>Tolbazy</City>
		<Country>Russia</Country>
		<Postal_Code>453480</Postal_Code>
		<Latitude>54.0114023</Latitude>
		<Longitude>55.8925281</Longitude>
	</record>
	<record>
		<id>355</id>
		<City>Napoli</City>
		<Country>Italy</Country>
		<Postal_Code>80141</Postal_Code>
		<Latitude>40.8782107</Latitude>
		<Longitude>14.2657584</Longitude>
	</record>
	<record>
		<id>356</id>
		<City>Alquerubim</City>
		<Country>Portugal</Country>
		<Postal_Code>3850-312</Postal_Code>
		<Latitude>40.6236334</Latitude>
		<Longitude>-8.503294</Longitude>
	</record>
	<record>
		<id>357</id>
		<City>Ichinohe</City>
		<Country>Japan</Country>
		<Postal_Code>675-0068</Postal_Code>
		<Latitude>40.2166885</Latitude>
		<Longitude>141.3014573</Longitude>
	</record>
	<record>
		<id>358</id>
		<City>Vargem Grande Paulista</City>
		<Country>Brazil</Country>
		<Postal_Code>06730-000</Postal_Code>
		<Latitude>-23.6208526</Latitude>
		<Longitude>-47.029458</Longitude>
	</record>
	<record>
		<id>359</id>
		<City>Qingyuan</City>
		<Country>China</Country>
		<Postal_Code />
		<Latitude>23.681774</Latitude>
		<Longitude>113.056042</Longitude>
	</record>
	<record>
		<id>360</id>
		<City>Rimus</City>
		<Country>Philippines</Country>
		<Postal_Code>2519</Postal_Code>
		<Latitude>14.6287391</Latitude>
		<Longitude>121.0577928</Longitude>
	</record>
	<record>
		<id>361</id>
		<City>Ílion</City>
		<Country>Greece</Country>
		<Postal_Code />
		<Latitude>38.0307786</Latitude>
		<Longitude>23.7038541</Longitude>
	</record>
	<record>
		<id>362</id>
		<City>Puerto La Cruz</City>
		<Country>Venezuela</Country>
		<Postal_Code />
		<Latitude>10.2007985</Latitude>
		<Longitude>-64.6334643</Longitude>
	</record>
	<record>
		<id>363</id>
		<City>Cotmon</City>
		<Country>Philippines</Country>
		<Postal_Code>4500</Postal_Code>
		<Latitude>13.1225237</Latitude>
		<Longitude>123.6615247</Longitude>
	</record>
	<record>
		<id>364</id>
		<City>Opatówek</City>
		<Country>Poland</Country>
		<Postal_Code>62-860</Postal_Code>
		<Latitude>51.7318422</Latitude>
		<Longitude>18.2051618</Longitude>
	</record>
	<record>
		<id>365</id>
		<City>Fengkou</City>
		<Country>China</Country>
		<Postal_Code />
		<Latitude>37.646108</Latitude>
		<Longitude>120.477813</Longitude>
	</record>
	<record>
		<id>366</id>
		<City>Mỹ Thọ</City>
		<Country>Vietnam</Country>
		<Postal_Code />
		<Latitude>10.3765284</Latitude>
		<Longitude>106.3438891</Longitude>
	</record>
	<record>
		<id>367</id>
		<City>Pustá Polom</City>
		<Country>Czech Republic</Country>
		<Postal_Code>747 69</Postal_Code>
		<Latitude>49.8491712</Latitude>
		<Longitude>17.9979053</Longitude>
	</record>
	<record>
		<id>368</id>
		<City>Hengshi</City>
		<Country>China</Country>
		<Postal_Code />
		<Latitude>28.146491</Latitude>
		<Longitude>112.222105</Longitude>
	</record>
	<record>
		<id>369</id>
		<City>Muikamachi</City>
		<Country>Japan</Country>
		<Postal_Code>990-0054</Postal_Code>
		<Latitude>38.2589551</Latitude>
		<Longitude>140.3422958</Longitude>
	</record>
	<record>
		<id>370</id>
		<City>Hejiang</City>
		<Country>China</Country>
		<Postal_Code />
		<Latitude>29.1416432</Latitude>
		<Longitude>119.7889248</Longitude>
	</record>
	<record>
		<id>371</id>
		<City>Asyūţ</City>
		<Country>Egypt</Country>
		<Postal_Code />
		<Latitude>27.1783117</Latitude>
		<Longitude>31.1859257</Longitude>
	</record>
	<record>
		<id>372</id>
		<City>Temenggungan</City>
		<Country>Indonesia</Country>
		<Postal_Code />
		<Latitude>-8.2077579</Latitude>
		<Longitude>114.374997</Longitude>
	</record>
	<record>
		<id>373</id>
		<City>Klisura</City>
		<Country>Bulgaria</Country>
		<Postal_Code>4341</Postal_Code>
		<Latitude>42.6930655</Latitude>
		<Longitude>24.4496426</Longitude>
	</record>
	<record>
		<id>374</id>
		<City>Bodø</City>
		<Country>Norway</Country>
		<Postal_Code>8029</Postal_Code>
		<Latitude>67.2929841</Latitude>
		<Longitude>14.587686</Longitude>
	</record>
	<record>
		<id>375</id>
		<City>Qaffīn</City>
		<Country>Palestinian Territory</Country>
		<Postal_Code />
		<Latitude>32.433378</Latitude>
		<Longitude>35.0843</Longitude>
	</record>
	<record>
		<id>376</id>
		<City>Gunajaya</City>
		<Country>Indonesia</Country>
		<Postal_Code />
		<Latitude>-7.3733703</Latitude>
		<Longitude>108.2822389</Longitude>
	</record>
	<record>
		<id>377</id>
		<City>Kylmäkoski</City>
		<Country>Finland</Country>
		<Postal_Code>37960</Postal_Code>
		<Latitude>61.1445749</Latitude>
		<Longitude>23.7984078</Longitude>
	</record>
	<record>
		<id>378</id>
		<City>Pavlodar</City>
		<Country>Kazakhstan</Country>
		<Postal_Code />
		<Latitude>52.2873032</Latitude>
		<Longitude>76.9674023</Longitude>
	</record>
	<record>
		<id>379</id>
		<City>Néa Róda</City>
		<Country>Greece</Country>
		<Postal_Code />
		<Latitude>40.3808163</Latitude>
		<Longitude>23.9238045</Longitude>
	</record>
	<record>
		<id>380</id>
		<City>Kępice</City>
		<Country>Poland</Country>
		<Postal_Code>77-230</Postal_Code>
		<Latitude>54.24052</Latitude>
		<Longitude>16.88967</Longitude>
	</record>
	<record>
		<id>381</id>
		<City>Buchach</City>
		<Country>Ukraine</Country>
		<Postal_Code />
		<Latitude>49.064831</Latitude>
		<Longitude>25.3817159</Longitude>
	</record>
	<record>
		<id>382</id>
		<City>Jolo</City>
		<Country>Philippines</Country>
		<Postal_Code>7400</Postal_Code>
		<Latitude>6.0536421</Latitude>
		<Longitude>121.0004951</Longitude>
	</record>
	<record>
		<id>383</id>
		<City>Karlskrona</City>
		<Country>Sweden</Country>
		<Postal_Code>371 79</Postal_Code>
		<Latitude>56.2614625</Latitude>
		<Longitude>15.6058647</Longitude>
	</record>
	<record>
		<id>384</id>
		<City>Blois</City>
		<Country>France</Country>
		<Postal_Code>41004 CEDEX</Postal_Code>
		<Latitude>47.5868157</Latitude>
		<Longitude>1.3305567</Longitude>
	</record>
	<record>
		<id>385</id>
		<City>Ḩadādah</City>
		<Country>Yemen</Country>
		<Postal_Code />
		<Latitude>13.17535</Latitude>
		<Longitude>44.27461</Longitude>
	</record>
	<record>
		<id>386</id>
		<City>Curuzú Cuatiá</City>
		<Country>Argentina</Country>
		<Postal_Code>3466</Postal_Code>
		<Latitude>-34.6182974</Latitude>
		<Longitude>-58.5303202</Longitude>
	</record>
	<record>
		<id>387</id>
		<City>Tseel</City>
		<Country>Mongolia</Country>
		<Postal_Code />
		<Latitude>45.5502218</Latitude>
		<Longitude>95.8545767</Longitude>
	</record>
	<record>
		<id>388</id>
		<City>Yashiro</City>
		<Country>Japan</Country>
		<Postal_Code>917-0102</Postal_Code>
		<Latitude>35.5267333</Latitude>
		<Longitude>135.8074728</Longitude>
	</record>
	<record>
		<id>389</id>
		<City>Padre Burgos</City>
		<Country>Philippines</Country>
		<Postal_Code>6602</Postal_Code>
		<Latitude>10.049147</Latitude>
		<Longitude>125.0259763</Longitude>
	</record>
	<record>
		<id>390</id>
		<City>Funabashi</City>
		<Country>Japan</Country>
		<Postal_Code>992-0325</Postal_Code>
		<Latitude>37.9909201</Latitude>
		<Longitude>140.1660258</Longitude>
	</record>
	<record>
		<id>391</id>
		<City>Ruše</City>
		<Country>Slovenia</Country>
		<Postal_Code>2342</Postal_Code>
		<Latitude>46.5399962</Latitude>
		<Longitude>15.5073987</Longitude>
	</record>
	<record>
		<id>392</id>
		<City>Kostino</City>
		<Country>Russia</Country>
		<Postal_Code>613060</Postal_Code>
		<Latitude>56.7478077</Latitude>
		<Longitude>37.520581</Longitude>
	</record>
	<record>
		<id>393</id>
		<City>Nyima</City>
		<Country>China</Country>
		<Postal_Code />
		<Latitude>31.784701</Latitude>
		<Longitude>87.236772</Longitude>
	</record>
	<record>
		<id>394</id>
		<City>Macia</City>
		<Country>Mozambique</Country>
		<Postal_Code />
		<Latitude>-25.0263578</Latitude>
		<Longitude>33.1070309</Longitude>
	</record>
	<record>
		<id>395</id>
		<City>Xiache</City>
		<Country>China</Country>
		<Postal_Code />
		<Latitude>35.202503</Latitude>
		<Longitude>102.521807</Longitude>
	</record>
	<record>
		<id>396</id>
		<City>Clarence-Rockland</City>
		<Country>Canada</Country>
		<Postal_Code>K4K</Postal_Code>
		<Latitude>45.5483729</Latitude>
		<Longitude>-75.2916118</Longitude>
	</record>
	<record>
		<id>397</id>
		<City>Beizhang</City>
		<Country>China</Country>
		<Postal_Code />
		<Latitude>36.09873</Latitude>
		<Longitude>113.324384</Longitude>
	</record>
	<record>
		<id>398</id>
		<City>Tawen Aobao</City>
		<Country>China</Country>
		<Postal_Code />
		<Latitude>39.084828</Latitude>
		<Longitude>117.185967</Longitude>
	</record>
	<record>
		<id>399</id>
		<City>Las Americas</City>
		<Country>Mexico</Country>
		<Postal_Code>38835</Postal_Code>
		<Latitude>21.1078535</Latitude>
		<Longitude>-101.694732</Longitude>
	</record>
	<record>
		<id>400</id>
		<City>Baishigou</City>
		<Country>China</Country>
		<Postal_Code />
		<Latitude>22.533583</Latitude>
		<Longitude>113.968498</Longitude>
	</record>
	<record>
		<id>401</id>
		<City>Masindi Port</City>
		<Country>Uganda</Country>
		<Postal_Code />
		<Latitude>1.699532</Latitude>
		<Longitude>32.0733109</Longitude>
	</record>
	<record>
		<id>402</id>
		<City>Santa Cruz do Rio Pardo</City>
		<Country>Brazil</Country>
		<Postal_Code>18900-000</Postal_Code>
		<Latitude>-22.8997858</Latitude>
		<Longitude>-49.6258261</Longitude>
	</record>
	<record>
		<id>403</id>
		<City>Kępie Żaleszańskie</City>
		<Country>Poland</Country>
		<Postal_Code>39-410</Postal_Code>
		<Latitude>50.643436</Latitude>
		<Longitude>21.888524</Longitude>
	</record>
	<record>
		<id>404</id>
		<City>Jiangmen</City>
		<Country>China</Country>
		<Postal_Code />
		<Latitude>22.579117</Latitude>
		<Longitude>113.081508</Longitude>
	</record>
	<record>
		<id>405</id>
		<City>Tafí del Valle</City>
		<Country>Argentina</Country>
		<Postal_Code>4137</Postal_Code>
		<Latitude>-26.850856</Latitude>
		<Longitude>-65.71065</Longitude>
	</record>
	<record>
		<id>406</id>
		<City>Dhamār</City>
		<Country>Yemen</Country>
		<Postal_Code />
		<Latitude>14.5455447</Latitude>
		<Longitude>44.4087348</Longitude>
	</record>
	<record>
		<id>407</id>
		<City>Kåge</City>
		<Country>Sweden</Country>
		<Postal_Code>934 91</Postal_Code>
		<Latitude>64.8962892</Latitude>
		<Longitude>21.1114939</Longitude>
	</record>
	<record>
		<id>408</id>
		<City>Peoria</City>
		<Country>United States</Country>
		<Postal_Code>85383</Postal_Code>
		<Latitude>33.7868136</Latitude>
		<Longitude>-112.28609</Longitude>
	</record>
	<record>
		<id>409</id>
		<City>Rappang</City>
		<Country>Indonesia</Country>
		<Postal_Code />
		<Latitude>-3.8375079</Latitude>
		<Longitude>119.8149736</Longitude>
	</record>
	<record>
		<id>410</id>
		<City>Talu</City>
		<Country>Indonesia</Country>
		<Postal_Code />
		<Latitude>0.2118181</Latitude>
		<Longitude>100.0024084</Longitude>
	</record>
	<record>
		<id>411</id>
		<City>Komyshany</City>
		<Country>Ukraine</Country>
		<Postal_Code />
		<Latitude>46.639171</Latitude>
		<Longitude>32.5037186</Longitude>
	</record>
	<record>
		<id>412</id>
		<City>Comodoro Rivadavia</City>
		<Country>Argentina</Country>
		<Postal_Code>9000</Postal_Code>
		<Latitude>-45.8405005</Latitude>
		<Longitude>-67.4686475</Longitude>
	</record>
	<record>
		<id>413</id>
		<City>Barra do Corda</City>
		<Country>Brazil</Country>
		<Postal_Code>65950-000</Postal_Code>
		<Latitude>-5.5018917</Latitude>
		<Longitude>-45.2464996</Longitude>
	</record>
	<record>
		<id>414</id>
		<City>Santa Elena</City>
		<Country>Argentina</Country>
		<Postal_Code>4135</Postal_Code>
		<Latitude>-24.8082762</Latitude>
		<Longitude>-65.4412053</Longitude>
	</record>
	<record>
		<id>415</id>
		<City>Pidhaytsi</City>
		<Country>Ukraine</Country>
		<Postal_Code />
		<Latitude>49.2744124</Latitude>
		<Longitude>25.1313297</Longitude>
	</record>
	<record>
		<id>416</id>
		<City>Žrnovnica</City>
		<Country>Croatia</Country>
		<Postal_Code>21251</Postal_Code>
		<Latitude>43.5211998</Latitude>
		<Longitude>16.5578656</Longitude>
	</record>
	<record>
		<id>417</id>
		<City>Tögrög</City>
		<Country>Mongolia</Country>
		<Postal_Code />
		<Latitude>45.7716857</Latitude>
		<Longitude>94.9302073</Longitude>
	</record>
	<record>
		<id>418</id>
		<City>Asmara</City>
		<Country>Eritrea</Country>
		<Postal_Code />
		<Latitude>15.3228767</Latitude>
		<Longitude>38.9250517</Longitude>
	</record>
	<record>
		<id>419</id>
		<City>La Motte-Servolex</City>
		<Country>France</Country>
		<Postal_Code>73295 CEDEX</Postal_Code>
		<Latitude>45.5973849</Latitude>
		<Longitude>5.8745347</Longitude>
	</record>
	<record>
		<id>420</id>
		<City>Trá Mhór</City>
		<Country>Ireland</Country>
		<Postal_Code>R93</Postal_Code>
		<Latitude>53.2736466</Latitude>
		<Longitude>-9.0197835</Longitude>
	</record>
	<record>
		<id>421</id>
		<City>Jiujie</City>
		<Country>China</Country>
		<Postal_Code />
		<Latitude>29.574103</Latitude>
		<Longitude>106.537605</Longitude>
	</record>
	<record>
		<id>422</id>
		<City>Bouabout</City>
		<Country>Morocco</Country>
		<Postal_Code />
		<Latitude>31.26886</Latitude>
		<Longitude>-9.183608</Longitude>
	</record>
	<record>
		<id>423</id>
		<City>Douz</City>
		<Country>Tunisia</Country>
		<Postal_Code />
		<Latitude>33.4614354</Latitude>
		<Longitude>9.0294708</Longitude>
	</record>
	<record>
		<id>424</id>
		<City>Laï</City>
		<Country>Chad</Country>
		<Postal_Code />
		<Latitude>9.3982268</Latitude>
		<Longitude>16.3051766</Longitude>
	</record>
	<record>
		<id>425</id>
		<City>Rawasan</City>
		<Country>Indonesia</Country>
		<Postal_Code />
		<Latitude>-6.7905128</Latitude>
		<Longitude>111.9671537</Longitude>
	</record>
	<record>
		<id>426</id>
		<City>Rączna</City>
		<Country>Poland</Country>
		<Postal_Code>32-060</Postal_Code>
		<Latitude>50.0398933</Latitude>
		<Longitude>19.7289065</Longitude>
	</record>
	<record>
		<id>427</id>
		<City>Ludbreg</City>
		<Country>Croatia</Country>
		<Postal_Code>42230</Postal_Code>
		<Latitude>46.2534684</Latitude>
		<Longitude>16.6157314</Longitude>
	</record>
	<record>
		<id>428</id>
		<City>Rajapeni</City>
		<Country>Indonesia</Country>
		<Postal_Code />
		<Latitude>-7.2841</Latitude>
		<Longitude>108.2148</Longitude>
	</record>
	<record>
		<id>429</id>
		<City>Taoshan</City>
		<Country>China</Country>
		<Postal_Code />
		<Latitude>22.251924</Latitude>
		<Longitude>112.794065</Longitude>
	</record>
	<record>
		<id>430</id>
		<City>Quesada</City>
		<Country>Costa Rica</Country>
		<Postal_Code>21001</Postal_Code>
		<Latitude>10.316625</Latitude>
		<Longitude>-84.428401</Longitude>
	</record>
	<record>
		<id>431</id>
		<City>Igreja</City>
		<Country>Portugal</Country>
		<Postal_Code>5050-401</Postal_Code>
		<Latitude>41.1653042</Latitude>
		<Longitude>-7.7850487</Longitude>
	</record>
	<record>
		<id>432</id>
		<City>Roma</City>
		<Country>Italy</Country>
		<Postal_Code>00152</Postal_Code>
		<Latitude>41.8789317</Latitude>
		<Longitude>12.4581209</Longitude>
	</record>
	<record>
		<id>433</id>
		<City>Colón</City>
		<Country>Panama</Country>
		<Postal_Code />
		<Latitude>9.359302</Latitude>
		<Longitude>-79.8998608</Longitude>
	</record>
	<record>
		<id>434</id>
		<City>Bjärred</City>
		<Country>Sweden</Country>
		<Postal_Code>237 24</Postal_Code>
		<Latitude>55.7222135</Latitude>
		<Longitude>13.0258964</Longitude>
	</record>
	<record>
		<id>435</id>
		<City>Schiedam postbusnummers</City>
		<Country>Netherlands</Country>
		<Postal_Code>3104</Postal_Code>
		<Latitude>51.883</Latitude>
		<Longitude>4.3577</Longitude>
	</record>
	<record>
		<id>436</id>
		<City>Somba</City>
		<Country>Indonesia</Country>
		<Postal_Code />
		<Latitude>-9.6993439</Latitude>
		<Longitude>119.9740534</Longitude>
	</record>
	<record>
		<id>437</id>
		<City>Quesada</City>
		<Country>Guatemala</Country>
		<Postal_Code>22017</Postal_Code>
		<Latitude>14.2712301</Latitude>
		<Longitude>-90.0375295</Longitude>
	</record>
	<record>
		<id>438</id>
		<City>Nanxinxiang</City>
		<Country>China</Country>
		<Postal_Code />
		<Latitude>28.797983</Latitude>
		<Longitude>116.070639</Longitude>
	</record>
	<record>
		<id>439</id>
		<City>Ampasimanolotra</City>
		<Country>Madagascar</Country>
		<Postal_Code />
		<Latitude>-18.8200534</Latitude>
		<Longitude>49.0652963</Longitude>
	</record>
	<record>
		<id>440</id>
		<City>Tuanjie</City>
		<Country>China</Country>
		<Postal_Code />
		<Latitude>25.456453</Latitude>
		<Longitude>103.240546</Longitude>
	</record>
	<record>
		<id>441</id>
		<City>Fort Worth</City>
		<Country>United States</Country>
		<Postal_Code>76129</Postal_Code>
		<Latitude>32.7087439</Latitude>
		<Longitude>-97.3617845</Longitude>
	</record>
	<record>
		<id>442</id>
		<City>Bulo</City>
		<Country>Philippines</Country>
		<Postal_Code>2510</Postal_Code>
		<Latitude>15.9535593</Latitude>
		<Longitude>121.1098151</Longitude>
	</record>
	<record>
		<id>443</id>
		<City>Adtugan</City>
		<Country>Philippines</Country>
		<Postal_Code>8716</Postal_Code>
		<Latitude>7.81194</Latitude>
		<Longitude>124.85444</Longitude>
	</record>
	<record>
		<id>444</id>
		<City>Zhougang</City>
		<Country>China</Country>
		<Postal_Code />
		<Latitude>31.5094268</Latitude>
		<Longitude>116.8877403</Longitude>
	</record>
	<record>
		<id>445</id>
		<City>Taroudant</City>
		<Country>Morocco</Country>
		<Postal_Code />
		<Latitude>30.4727126</Latitude>
		<Longitude>-8.8748765</Longitude>
	</record>
	<record>
		<id>446</id>
		<City>Wielbark</City>
		<Country>Poland</Country>
		<Postal_Code>12-160</Postal_Code>
		<Latitude>53.3983079</Latitude>
		<Longitude>20.9461113</Longitude>
	</record>
	<record>
		<id>447</id>
		<City>Jangkungkusumo</City>
		<Country>Indonesia</Country>
		<Postal_Code />
		<Latitude>-7.002985</Latitude>
		<Longitude>112.282503</Longitude>
	</record>
	<record>
		<id>448</id>
		<City>Jingtou</City>
		<Country>China</Country>
		<Postal_Code />
		<Latitude>33.120053</Latitude>
		<Longitude>117.939854</Longitude>
	</record>
	<record>
		<id>449</id>
		<City>Reckange-sur-Mess</City>
		<Country>Luxembourg</Country>
		<Postal_Code>L-4982</Postal_Code>
		<Latitude>49.5636147</Latitude>
		<Longitude>6.0123531</Longitude>
	</record>
	<record>
		<id>450</id>
		<City>Şirvan</City>
		<Country>Azerbaijan</Country>
		<Postal_Code />
		<Latitude>39.9265747</Latitude>
		<Longitude>48.9205727</Longitude>
	</record>
	<record>
		<id>451</id>
		<City>Adelaide</City>
		<Country>Australia</Country>
		<Postal_Code>5839</Postal_Code>
		<Latitude>-34.9284989</Latitude>
		<Longitude>138.6007456</Longitude>
	</record>
	<record>
		<id>452</id>
		<City>Shar</City>
		<Country>Kazakhstan</Country>
		<Postal_Code />
		<Latitude>49.5850143</Latitude>
		<Longitude>81.0478592</Longitude>
	</record>
	<record>
		<id>453</id>
		<City>Al Jīzah</City>
		<Country>Egypt</Country>
		<Postal_Code />
		<Latitude>30.0130557</Latitude>
		<Longitude>31.2088526</Longitude>
	</record>
	<record>
		<id>454</id>
		<City>Palaiochóri</City>
		<Country>Greece</Country>
		<Postal_Code />
		<Latitude>40.4930573</Latitude>
		<Longitude>23.6502521</Longitude>
	</record>
	<record>
		<id>455</id>
		<City>Wenxi</City>
		<Country>China</Country>
		<Postal_Code />
		<Latitude>35.356644</Latitude>
		<Longitude>111.22472</Longitude>
	</record>
	<record>
		<id>456</id>
		<City>Makueni</City>
		<Country>Kenya</Country>
		<Postal_Code />
		<Latitude>-1.7864953</Latitude>
		<Longitude>37.6311071</Longitude>
	</record>
	<record>
		<id>457</id>
		<City>Banjar Teguan</City>
		<Country>Indonesia</Country>
		<Postal_Code />
		<Latitude>-8.5067</Latitude>
		<Longitude>115.2298</Longitude>
	</record>
	<record>
		<id>458</id>
		<City>Ängelholm</City>
		<Country>Sweden</Country>
		<Postal_Code>262 34</Postal_Code>
		<Latitude>56.246131</Latitude>
		<Longitude>12.8726986</Longitude>
	</record>
	<record>
		<id>459</id>
		<City>Sundbyberg</City>
		<Country>Sweden</Country>
		<Postal_Code>172 39</Postal_Code>
		<Latitude>59.3586958</Latitude>
		<Longitude>17.9687559</Longitude>
	</record>
	<record>
		<id>460</id>
		<City>Sepīdān</City>
		<Country>Iran</Country>
		<Postal_Code />
		<Latitude>30.0450571</Latitude>
		<Longitude>52.2762322</Longitude>
	</record>
	<record>
		<id>461</id>
		<City>Bansko</City>
		<Country>Bulgaria</Country>
		<Postal_Code>2770</Postal_Code>
		<Latitude>41.8404241</Latitude>
		<Longitude>23.485653</Longitude>
	</record>
	<record>
		<id>462</id>
		<City>Cervantes</City>
		<Country>Philippines</Country>
		<Postal_Code>2718</Postal_Code>
		<Latitude>14.4712676</Latitude>
		<Longitude>121.0441201</Longitude>
	</record>
	<record>
		<id>463</id>
		<City>Krinichnaya</City>
		<Country>Ukraine</Country>
		<Postal_Code />
		<Latitude>48.1285846</Latitude>
		<Longitude>38.0317812</Longitude>
	</record>
	<record>
		<id>464</id>
		<City>Curibaya</City>
		<Country>Peru</Country>
		<Postal_Code />
		<Latitude>-14.0691337</Latitude>
		<Longitude>-70.4281661</Longitude>
	</record>
	<record>
		<id>465</id>
		<City>Punta de Piedra</City>
		<Country>Venezuela</Country>
		<Postal_Code />
		<Latitude>10.9015165</Latitude>
		<Longitude>-64.0857232</Longitude>
	</record>
	<record>
		<id>466</id>
		<City>Sanana</City>
		<Country>Indonesia</Country>
		<Postal_Code />
		<Latitude>-2.2014533</Latitude>
		<Longitude>125.9369952</Longitude>
	</record>
	<record>
		<id>467</id>
		<City>Charagua</City>
		<Country>Bolivia</Country>
		<Postal_Code />
		<Latitude>-19.7809492</Latitude>
		<Longitude>-63.1973233</Longitude>
	</record>
	<record>
		<id>468</id>
		<City>Diadi</City>
		<Country>Philippines</Country>
		<Postal_Code>3712</Postal_Code>
		<Latitude>16.660204</Latitude>
		<Longitude>121.366653</Longitude>
	</record>
	<record>
		<id>469</id>
		<City>Sa Kaeo</City>
		<Country>Thailand</Country>
		<Postal_Code>45250</Postal_Code>
		<Latitude>17.7116584</Latitude>
		<Longitude>100.3477801</Longitude>
	</record>
	<record>
		<id>470</id>
		<City>Taywanak Ilaya</City>
		<Country>Philippines</Country>
		<Postal_Code>4133</Postal_Code>
		<Latitude>14.1512889</Latitude>
		<Longitude>120.8576801</Longitude>
	</record>
	<record>
		<id>471</id>
		<City>Brades</City>
		<Country>Montserrat</Country>
		<Postal_Code />
		<Latitude>16.7909044</Latitude>
		<Longitude>-62.2106241</Longitude>
	</record>
	<record>
		<id>472</id>
		<City>Stockholm</City>
		<Country>Sweden</Country>
		<Postal_Code>111 95</Postal_Code>
		<Latitude>47.0168309</Latitude>
		<Longitude>-68.1430168</Longitude>
	</record>
	<record>
		<id>473</id>
		<City>Xishiqiao</City>
		<Country>China</Country>
		<Postal_Code />
		<Latitude>22.948016</Latitude>
		<Longitude>113.366904</Longitude>
	</record>
	<record>
		<id>474</id>
		<City>Munggang</City>
		<Country>Indonesia</Country>
		<Postal_Code />
		<Latitude>-6.7837708</Latitude>
		<Longitude>107.8569988</Longitude>
	</record>
	<record>
		<id>475</id>
		<City>Tirtopuro</City>
		<Country>Indonesia</Country>
		<Postal_Code />
		<Latitude>-7.6568317</Latitude>
		<Longitude>110.3392399</Longitude>
	</record>
	<record>
		<id>476</id>
		<City>Laojunpo</City>
		<Country>China</Country>
		<Postal_Code />
		<Latitude>35.74716</Latitude>
		<Longitude>105.42118</Longitude>
	</record>
	<record>
		<id>477</id>
		<City>Nogent-le-Rotrou</City>
		<Country>France</Country>
		<Postal_Code>28404 CEDEX</Postal_Code>
		<Latitude>48.3156651</Latitude>
		<Longitude>0.839002</Longitude>
	</record>
	<record>
		<id>478</id>
		<City>Knežica</City>
		<Country>Bosnia and Herzegovina</Country>
		<Postal_Code />
		<Latitude>45.1056617</Latitude>
		<Longitude>16.675905</Longitude>
	</record>
	<record>
		<id>479</id>
		<City>Klyuchevskiy</City>
		<Country>Russia</Country>
		<Postal_Code>632514</Postal_Code>
		<Latitude>57.3299614</Latitude>
		<Longitude>61.9066841</Longitude>
	</record>
	<record>
		<id>480</id>
		<City>Azenhas do Mar</City>
		<Country>Portugal</Country>
		<Postal_Code>2705-085</Postal_Code>
		<Latitude>38.8393743</Latitude>
		<Longitude>-9.4606374</Longitude>
	</record>
	<record>
		<id>481</id>
		<City>Orekhovo-Borisovo</City>
		<Country>Russia</Country>
		<Postal_Code>142717</Postal_Code>
		<Latitude>55.5807611</Latitude>
		<Longitude>37.7673912</Longitude>
	</record>
	<record>
		<id>482</id>
		<City>Nagai</City>
		<Country>Japan</Country>
		<Postal_Code>986-0303</Postal_Code>
		<Latitude>38.5796262</Latitude>
		<Longitude>141.2777515</Longitude>
	</record>
	<record>
		<id>483</id>
		<City>Rahayu Dua</City>
		<Country>Indonesia</Country>
		<Postal_Code />
		<Latitude>-7.8184706</Latitude>
		<Longitude>110.3922413</Longitude>
	</record>
	<record>
		<id>484</id>
		<City>Jiangchi</City>
		<Country>China</Country>
		<Postal_Code />
		<Latitude>27.0874564</Latitude>
		<Longitude>114.9042208</Longitude>
	</record>
	<record>
		<id>485</id>
		<City>Keetmanshoop</City>
		<Country>Namibia</Country>
		<Postal_Code />
		<Latitude>-26.5642351</Latitude>
		<Longitude>18.1310083</Longitude>
	</record>
	<record>
		<id>486</id>
		<City>Sosnovoborsk</City>
		<Country>Russia</Country>
		<Postal_Code>442591</Postal_Code>
		<Latitude>53.3412978</Latitude>
		<Longitude>46.2520423</Longitude>
	</record>
	<record>
		<id>487</id>
		<City>Brejieira</City>
		<Country>Portugal</Country>
		<Postal_Code>2420-257</Postal_Code>
		<Latitude>39.764261</Latitude>
		<Longitude>-8.7386338</Longitude>
	</record>
	<record>
		<id>488</id>
		<City>Petaling Jaya</City>
		<Country>Malaysia</Country>
		<Postal_Code>46964</Postal_Code>
		<Latitude>3.0782922</Latitude>
		<Longitude>101.5931076</Longitude>
	</record>
	<record>
		<id>489</id>
		<City>Kamsack</City>
		<Country>Canada</Country>
		<Postal_Code>R2J</Postal_Code>
		<Latitude>51.56668</Latitude>
		<Longitude>-101.90093</Longitude>
	</record>
	<record>
		<id>490</id>
		<City>Tanggul Wetan</City>
		<Country>Indonesia</Country>
		<Postal_Code />
		<Latitude>-8.1680148</Latitude>
		<Longitude>113.4663255</Longitude>
	</record>
	<record>
		<id>491</id>
		<City>Riverton</City>
		<Country>New Zealand</Country>
		<Postal_Code>9847</Postal_Code>
		<Latitude>-46.3478987</Latitude>
		<Longitude>168.0177331</Longitude>
	</record>
	<record>
		<id>492</id>
		<City>Jastrzębia</City>
		<Country>Poland</Country>
		<Postal_Code>26-631</Postal_Code>
		<Latitude>51.5047917</Latitude>
		<Longitude>21.2618048</Longitude>
	</record>
	<record>
		<id>493</id>
		<City>Jincheng</City>
		<Country>Taiwan</Country>
		<Postal_Code />
		<Latitude>24.4320647</Latitude>
		<Longitude>118.3155101</Longitude>
	</record>
	<record>
		<id>494</id>
		<City>Cankuzo</City>
		<Country>Burundi</Country>
		<Postal_Code />
		<Latitude>-3.1527788</Latitude>
		<Longitude>30.6199895</Longitude>
	</record>
	<record>
		<id>495</id>
		<City>Roscoff</City>
		<Country>France</Country>
		<Postal_Code>29688 CEDEX</Postal_Code>
		<Latitude>48.0381485</Latitude>
		<Longitude>-3.7612141</Longitude>
	</record>
	<record>
		<id>496</id>
		<City>Witzenhausen</City>
		<Country>Germany</Country>
		<Postal_Code>37217</Postal_Code>
		<Latitude>51.349366</Latitude>
		<Longitude>9.7730968</Longitude>
	</record>
	<record>
		<id>497</id>
		<City>Kefar Yona</City>
		<Country>Israel</Country>
		<Postal_Code />
		<Latitude>32.317719</Latitude>
		<Longitude>34.933615</Longitude>
	</record>
	<record>
		<id>498</id>
		<City>Mollās̄ānī</City>
		<Country>Iran</Country>
		<Postal_Code />
		<Latitude>31.5825784</Latitude>
		<Longitude>48.8875486</Longitude>
	</record>
	<record>
		<id>499</id>
		<City>Kout na Šumavě</City>
		<Country>Czech Republic</Country>
		<Postal_Code>345 02</Postal_Code>
		<Latitude>49.4040465</Latitude>
		<Longitude>12.9946543</Longitude>
	</record>
	<record>
		<id>500</id>
		<City>Luz de Tavira</City>
		<Country>Portugal</Country>
		<Postal_Code>8800-114</Postal_Code>
		<Latitude>37.0914183</Latitude>
		<Longitude>-7.7047624</Longitude>
	</record>
	<record>
		<id>501</id>
		<City>Pueblo Nuevo</City>
		<Country>Panama</Country>
		<Postal_Code />
		<Latitude>9.0144214</Latitude>
		<Longitude>-79.5125662</Longitude>
	</record>
	<record>
		<id>502</id>
		<City>Osieczany</City>
		<Country>Poland</Country>
		<Postal_Code>32-432</Postal_Code>
		<Latitude>49.8401383</Latitude>
		<Longitude>20.0045112</Longitude>
	</record>
	<record>
		<id>503</id>
		<City>Lutou</City>
		<Country>China</Country>
		<Postal_Code />
		<Latitude>23.528427</Latitude>
		<Longitude>116.399409</Longitude>
	</record>
	<record>
		<id>504</id>
		<City>Xinning</City>
		<Country>China</Country>
		<Postal_Code />
		<Latitude>26.433417</Latitude>
		<Longitude>110.856622</Longitude>
	</record>
	<record>
		<id>505</id>
		<City>Podstrana</City>
		<Country>Croatia</Country>
		<Postal_Code>53213</Postal_Code>
		<Latitude>42.9228102</Latitude>
		<Longitude>17.1657568</Longitude>
	</record>
	<record>
		<id>506</id>
		<City>Huangxi</City>
		<Country>China</Country>
		<Postal_Code />
		<Latitude>23.7247599</Latitude>
		<Longitude>108.8076195</Longitude>
	</record>
	<record>
		<id>507</id>
		<City>San Carlos</City>
		<Country>Argentina</Country>
		<Postal_Code>4186</Postal_Code>
		<Latitude>-32.7208452</Latitude>
		<Longitude>-60.7283624</Longitude>
	</record>
	<record>
		<id>508</id>
		<City>Mendes</City>
		<Country>Brazil</Country>
		<Postal_Code>26700-000</Postal_Code>
		<Latitude>-22.5284121</Latitude>
		<Longitude>-43.7334089</Longitude>
	</record>
	<record>
		<id>509</id>
		<City>Istres</City>
		<Country>France</Country>
		<Postal_Code>13802 CEDEX</Postal_Code>
		<Latitude>43.4988397</Latitude>
		<Longitude>4.9789041</Longitude>
	</record>
	<record>
		<id>510</id>
		<City>Alak</City>
		<Country>Indonesia</Country>
		<Postal_Code />
		<Latitude>-10.1917127</Latitude>
		<Longitude>123.5616058</Longitude>
	</record>
	<record>
		<id>511</id>
		<City>Yuqian</City>
		<Country>China</Country>
		<Postal_Code />
		<Latitude>30.652181</Latitude>
		<Longitude>104.00155</Longitude>
	</record>
	<record>
		<id>512</id>
		<City>Komsomol’skiy</City>
		<Country>Uzbekistan</Country>
		<Postal_Code />
		<Latitude>40.42722</Latitude>
		<Longitude>71.71889</Longitude>
	</record>
	<record>
		<id>513</id>
		<City>Polešovice</City>
		<Country>Czech Republic</Country>
		<Postal_Code>687 37</Postal_Code>
		<Latitude>49.0338988</Latitude>
		<Longitude>17.3406456</Longitude>
	</record>
	<record>
		<id>514</id>
		<City>Citeureup</City>
		<Country>Indonesia</Country>
		<Postal_Code />
		<Latitude>-6.4933318</Latitude>
		<Longitude>106.8809319</Longitude>
	</record>
	<record>
		<id>515</id>
		<City>Bardalah</City>
		<Country>Palestinian Territory</Country>
		<Postal_Code />
		<Latitude>32.38632</Latitude>
		<Longitude>35.48084</Longitude>
	</record>
	<record>
		<id>516</id>
		<City>Clermont-Ferrand</City>
		<Country>France</Country>
		<Postal_Code>63009 CEDEX 1</Postal_Code>
		<Latitude>45.788378</Latitude>
		<Longitude>3.1331436</Longitude>
	</record>
	<record>
		<id>517</id>
		<City>Água de Pau</City>
		<Country>Portugal</Country>
		<Postal_Code>9560-205</Postal_Code>
		<Latitude>37.7213799</Latitude>
		<Longitude>-25.510372</Longitude>
	</record>
	<record>
		<id>518</id>
		<City>Itsandra</City>
		<Country>Comoros</Country>
		<Postal_Code />
		<Latitude>-11.6557739</Latitude>
		<Longitude>43.26505</Longitude>
	</record>
	<record>
		<id>519</id>
		<City>Patos Fshat</City>
		<Country>Albania</Country>
		<Postal_Code />
		<Latitude>40.64278</Latitude>
		<Longitude>19.65083</Longitude>
	</record>
	<record>
		<id>520</id>
		<City>Daying</City>
		<Country>China</Country>
		<Postal_Code />
		<Latitude>30.594336</Latitude>
		<Longitude>105.236903</Longitude>
	</record>
	<record>
		<id>521</id>
		<City>Mungo</City>
		<Country>Philippines</Country>
		<Postal_Code>2102</Postal_Code>
		<Latitude>17.7302207</Latitude>
		<Longitude>121.4674111</Longitude>
	</record>
	<record>
		<id>522</id>
		<City>Chenqiao</City>
		<Country>China</Country>
		<Postal_Code />
		<Latitude>30.327543</Latitude>
		<Longitude>120.158598</Longitude>
	</record>
	<record>
		<id>523</id>
		<City>Consolacion</City>
		<Country>Philippines</Country>
		<Postal_Code>6001</Postal_Code>
		<Latitude>10.3753838</Latitude>
		<Longitude>123.9555544</Longitude>
	</record>
	<record>
		<id>524</id>
		<City>Jiaohu</City>
		<Country>China</Country>
		<Postal_Code />
		<Latitude>35.319084</Latitude>
		<Longitude>114.540858</Longitude>
	</record>
	<record>
		<id>525</id>
		<City>Retenggoma</City>
		<Country>Indonesia</Country>
		<Postal_Code />
		<Latitude>-8.6662</Latitude>
		<Longitude>122.068</Longitude>
	</record>
	<record>
		<id>526</id>
		<City>Grębków</City>
		<Country>Poland</Country>
		<Postal_Code>07-110</Postal_Code>
		<Latitude>52.2597944</Latitude>
		<Longitude>21.94731</Longitude>
	</record>
	<record>
		<id>527</id>
		<City>Banī Suhaylā</City>
		<Country>Palestinian Territory</Country>
		<Postal_Code />
		<Latitude>31.34337</Latitude>
		<Longitude>34.32337</Longitude>
	</record>
	<record>
		<id>528</id>
		<City>Echeng</City>
		<Country>China</Country>
		<Postal_Code />
		<Latitude>30.400572</Latitude>
		<Longitude>114.891614</Longitude>
	</record>
	<record>
		<id>529</id>
		<City>Birqīn</City>
		<Country>Palestinian Territory</Country>
		<Postal_Code />
		<Latitude>32.45461</Latitude>
		<Longitude>35.26076</Longitude>
	</record>
	<record>
		<id>530</id>
		<City>Ruangwa</City>
		<Country>Tanzania</Country>
		<Postal_Code />
		<Latitude>-10.0662772</Latitude>
		<Longitude>38.9276622</Longitude>
	</record>
	<record>
		<id>531</id>
		<City>Bayan</City>
		<Country>Mongolia</Country>
		<Postal_Code />
		<Latitude>47.2495437</Latitude>
		<Longitude>107.5408308</Longitude>
	</record>
	<record>
		<id>532</id>
		<City>Gaplek</City>
		<Country>Indonesia</Country>
		<Postal_Code />
		<Latitude>-6.3472173</Latitude>
		<Longitude>106.7474013</Longitude>
	</record>
	<record>
		<id>533</id>
		<City>Zaječar</City>
		<Country>Serbia</Country>
		<Postal_Code />
		<Latitude>43.9015048</Latitude>
		<Longitude>22.2738011</Longitude>
	</record>
	<record>
		<id>534</id>
		<City>Gorshechnoye</City>
		<Country>Russia</Country>
		<Postal_Code>307425</Postal_Code>
		<Latitude>51.4787508</Latitude>
		<Longitude>38.0781648</Longitude>
	</record>
	<record>
		<id>535</id>
		<City>Gryfino</City>
		<Country>Poland</Country>
		<Postal_Code>74-101</Postal_Code>
		<Latitude>53.2544872</Latitude>
		<Longitude>14.4927021</Longitude>
	</record>
